stop_id,stop_name,stop_lat,stop_lon,zone_id,location_type,parent_station,wheelchair_boarding
U15775Z2,"Hevlín, škola",48.751285,16.380187,"570",0,U15775N1,2
U15773Z2,"Hevlín, cihelna",48.761387,16.38346,"570",0,U15773N2,2
U15627Z2,"Hrabětice",48.796862,16.395222,"560",0,U15627N3,2
U15640Z2,"Šanov, u mostu",48.799235,16.386832,"560",0,U15640N4,2
U15639Z2,"Šanov, požární zbrojnice",48.802143,16.373927,"560",0,U15639N5,2
U15637Z2,"Hrušovany nad Jevišovkou, žel. st.",48.810465,16.38336,"560",0,U15637N6,2
U15628Z2,"Hrabětice, rozcestí",48.811255,16.39406,"560",0,U15628N7,2
U15634Z2,"Hrušovany nad Jevišovkou, statek",48.817402,16.397767,"560",0,U15634N8,2
U15631Z2,"Hrušovany nad Jevišovkou, lékárna",48.828765,16.399643,"560",0,U15631N9,2
U15632Z1,"Hrušovany nad Jevišovkou, Lidická, VÚPP",48.831472,16.401928,"560",0,U15632N10,2
U15635Z2,"Hrušovany nad Jevišovkou, STS",48.842858,16.403833,"560",0,U15635N11,2
U15553Z2,"Litobratřice, u konírny",48.883577,16.400955,"550",0,U15553N12,2
U15554Z2,"Litobratřice, obecní úřad",48.887875,16.403302,"550",0,U15554N13,2
U15552Z2,"Jiřice u Miroslavi",48.920697,16.39138,"550",0,U15552N14,2
U15430Z2,"Troskotovice, prodejna",48.918625,16.432717,"540",0,U15430N15,2
U15431Z2,"Troskotovice, škola",48.918848,16.436795,"540",0,U15431N16,2
U15429Z2,"Troskotovice, hřbitov",48.922002,16.441158,"540",0,U15429N17,2
U15434Z2,"Vlasatice, Troskotovická",48.931067,16.48339,"540",0,U15434N18,2
U15433Z2,"Vlasatice, obecní úřad",48.933743,16.484258,"540",0,U15433N19,2
U15325Z1,"Pohořelice, Velký Dvůr, rozcestí",48.96221,16.519497,"530",0,U15325N20,2
U15368Z1,"Pohořelice, průmyslová zóna jih",48.971418,16.517022,"530",0,U15368N21,2
U15327Z1,"Pohořelice, Městský úřad",48.977073,16.515407,"530",0,U15327N22,2
U15317Z3,"Pohořelice, náměstí",48.980853,16.522538,"530",0,U15317N23,2
U15315Z2,"Pohořelice, Brněnská",48.984956,16.530513,"530",0,U15315N24,2
U15379Z2,"Pohořelice, průmyslová zóna východ",48.990539,16.540751,"530",0,U15379N25,2
U15122Z4,"Modřice, Brněnská",49.130132,16.604936,"510",0,U15122N26,2
U1703Z7,"Ústřední hřbitov",49.170741,16.597834,"101",0,U1703N27,1
U1622Z1,"Strážní",49.178207,16.603976,"100",0,U1622N28,2
U1011Z9,"Autobusové nádraží",49.185364,16.616151,"100",0,U1011N29,2
U1622Z2,"Strážní",49.178477,16.603646,"100",0,U1622N28,2
U1703Z6,"Ústřední hřbitov",49.170799,16.597595,"101",0,U1703N27,1
U15137Z10,"Modřice, Tyršova",49.130136,16.603469,"510",0,U15137N30,2
U15379Z1,"Pohořelice, průmyslová zóna východ",48.989921,16.539353,"530",0,U15379N25,2
U15315Z1,"Pohořelice, Brněnská",48.984843,16.529998,"530",0,U15315N24,2
U15317Z4,"Pohořelice, náměstí",48.980769,16.522127,"530",0,U15317N23,2
U15327Z2,"Pohořelice, Městský úřad",48.976752,16.515348,"530",0,U15327N22,2
U15368Z2,"Pohořelice, průmyslová zóna jih",48.971418,16.517022,"530",0,U15368N21,2
U15325Z2,"Pohořelice, Velký Dvůr, rozcestí",48.96186,16.519344,"530",0,U15325N20,2
U15433Z1,"Vlasatice, obecní úřad",48.9337,16.484063,"540",0,U15433N19,2
U15434Z1,"Vlasatice, Troskotovická",48.931128,16.48354,"540",0,U15434N18,2
U15429Z1,"Troskotovice, hřbitov",48.921882,16.440898,"540",0,U15429N17,2
U15431Z1,"Troskotovice, škola",48.918878,16.436692,"540",0,U15431N16,2
U15430Z1,"Troskotovice, prodejna",48.918698,16.43252,"540",0,U15430N15,2
U15552Z1,"Jiřice u Miroslavi",48.920697,16.39138,"550",0,U15552N14,2
U15554Z1,"Litobratřice, obecní úřad",48.888397,16.40314,"550",0,U15554N13,2
U15553Z1,"Litobratřice, u konírny",48.883443,16.400735,"550",0,U15553N12,2
U15635Z1,"Hrušovany nad Jevišovkou, STS",48.842928,16.40373,"560",0,U15635N11,2
U15632Z2,"Hrušovany nad Jevišovkou, Lidická, VÚPP",48.831517,16.401898,"560",0,U15632N10,2
U15631Z1,"Hrušovany nad Jevišovkou, lékárna",48.828742,16.399458,"560",0,U15631N9,2
U15634Z1,"Hrušovany nad Jevišovkou, statek",48.817595,16.39771,"560",0,U15634N8,2
U15628Z1,"Hrabětice, rozcestí",48.811255,16.39406,"560",0,U15628N7,2
U15637Z1,"Hrušovany nad Jevišovkou, žel. st.",48.810462,16.383468,"560",0,U15637N6,2
U15639Z1,"Šanov, požární zbrojnice",48.802093,16.374043,"560",0,U15639N5,2
U15640Z1,"Šanov, u mostu",48.799232,16.386737,"560",0,U15640N4,2
U15627Z1,"Hrabětice",48.796863,16.395113,"560",0,U15627N3,2
U15773Z1,"Hevlín, cihelna",48.76153,16.383382,"570",0,U15773N2,2
U15775Z1,"Hevlín, škola",48.75151,16.380257,"570",0,U15775N1,2
U15843Z1,"Hevlín, LAA BOMBA - SHOPPING CENTER",48.732097,16.38276,"570",0,U15843N31,2
U15829Z1,"Laa an der Thaya, Stadtplatz",48.720393,16.384622,"580",0,U15829N32,2
U15838Z1,"Laa an der Thaya, Bahnhof",48.722881,16.402679,"580",0,U15838N33,2
U15839Z1,"Laa an der Thaya, Therme",48.723047,16.395582,"580",0,U15839N34,2
U15839Z2,"Laa an der Thaya, Therme",48.723047,16.395582,"580",0,U15839N34,2
U15838Z2,"Laa an der Thaya, Bahnhof",48.723331,16.402208,"580",0,U15838N33,2
U15829Z2,"Laa an der Thaya, Stadtplatz",48.720393,16.384622,"580",0,U15829N32,2
U15843Z11,"Hevlín, LAA BOMBA - SHOPPING CENTER",48.732097,16.38276,"570",0,U15843N31,2
U15714Z1,"Mikulov, železniční stanice",48.801587,16.626658,"571",0,U15714N35,2
U15709Z3,"Mikulov, u parku",48.802552,16.63395,"571",0,U15709N36,2
U15702Z2,"Mikulov, Brněnská",48.812258,16.630495,"571",0,U15702N37,2
U15701Z2,"Bavory, rozcestí",48.830925,16.612887,"552",0,U15701N38,2
U15545Z2,"Dolní Dunajovice, rozcestí",48.851635,16.608425,"552",0,U15545N39,2
U15544Z3,"Dolní Dunajovice, Jednota",48.855323,16.591977,"552",0,U15544N40,2
U15543Z2,"Dolní Dunajovice, Hlavní",48.857637,16.58679,"552",0,U15543N41,2
U15565Z2,"Brod nad Dyjí, obecní úřad",48.876282,16.536815,"540",0,U15565N42,2
U15428Z2,"Pasohlávky, u kostela",48.90308,16.54164,"540",0,U15428N43,2
U15427Z2,"Pasohlávky, rozcestí Ivaň",48.919619,16.556467,"540",0,U15427N44,2
U15318Z2,"Pohořelice, Nová Ves",48.937338,16.528195,"540",0,U15318N45,2
U15317Z7,"Pohořelice, náměstí",48.980853,16.522538,"530",0,U15317N23,2
U15322Z2,"Pohořelice, Smolín, rozcestí",49.007648,16.552038,"530",0,U15322N46,2
U15235Z2,"Medlov, rozcestí",49.038351,16.56195,"520",0,U15235N47,2
U15204Z4,"Ledce, rozcestí",49.04988,16.565693,"520",0,U15204N48,2
U15203Z4,"Ledce, obecní úřad",49.052175,16.555735,"520",0,U15203N49,2
U15208Z4,"Sobotovice",49.059145,16.558115,"520",0,U15208N50,2
U15236Z2,"Sobotovice, rozcestí",49.060587,16.565757,"520",0,U15236N51,2
U15166Z2,"Rajhrad, stará pošta",49.087794,16.591688,"510",0,U15166N52,2
U1393Z4,"Moravanská",49.142614,16.603006,"101",0,U1393N53,1
U1396Z4,"Moravanské lány",49.149305,16.601813,"101",0,U1396N54,2
U1466Z4,"Ořechovská",49.156124,16.600676,"101",0,U1466N55,1
U1011Z10,"Autobusové nádraží",49.185364,16.616151,"100",0,U1011N29,2
U1435Z1,"Novomoravanská",49.153104,16.600346,"101",0,U1435N56,2
U1396Z3,"Moravanské lány",49.149585,16.601004,"101",0,U1396N54,2
U1393Z3,"Moravanská",49.142887,16.602097,"101",0,U1393N53,2
U15166Z3,"Rajhrad, stará pošta",49.087759,16.591479,"510",0,U15166N52,2
U15236Z1,"Sobotovice, rozcestí",49.060587,16.565757,"520",0,U15236N51,2
U15208Z3,"Sobotovice",49.059067,16.558138,"520",0,U15208N50,2
U15203Z3,"Ledce, obecní úřad",49.052175,16.555735,"520",0,U15203N49,2
U15204Z3,"Ledce, rozcestí",49.04971,16.565488,"520",0,U15204N48,2
U15235Z1,"Medlov, rozcestí",49.038253,16.561805,"520",0,U15235N47,2
U15322Z1,"Pohořelice, Smolín, rozcestí",49.007682,16.551882,"530",0,U15322N46,2
U15317Z5,"Pohořelice, náměstí",48.980769,16.522127,"530",0,U15317N23,2
U15318Z1,"Pohořelice, Nová Ves",48.936807,16.528422,"540",0,U15318N45,2
U15427Z1,"Pasohlávky, rozcestí Ivaň",48.918193,16.556709,"540",0,U15427N44,2
U15428Z1,"Pasohlávky, u kostela",48.90308,16.54164,"540",0,U15428N43,2
U15565Z1,"Brod nad Dyjí, obecní úřad",48.876305,16.536722,"540",0,U15565N42,2
U15543Z1,"Dolní Dunajovice, Hlavní",48.857567,16.586967,"552",0,U15543N41,2
U15544Z1,"Dolní Dunajovice, Jednota",48.854737,16.592543,"552",0,U15544N40,2
U15545Z1,"Dolní Dunajovice, rozcestí",48.850615,16.60982,"552",0,U15545N39,2
U15701Z1,"Bavory, rozcestí",48.830593,16.612673,"552",0,U15701N38,2
U15702Z1,"Mikulov, Brněnská",48.812088,16.630516,"571",0,U15702N37,2
U15703Z1,"Mikulov, 22. dubna",48.805487,16.633496,"571",0,U15703N57,2
U15709Z1,"Mikulov, u parku",48.802117,16.634445,"571",0,U15709N36,2
U15714Z51,"Mikulov, železniční stanice",48.80216,16.62617,"571",0,U15714N35,2
U14012Z1,"Kubšice, křižovatka",49.001943,16.408638,"449",0,U14012N58,2
U14018Z1,"Olbramovice, prodejna",48.989877,16.395692,"449",0,U14018N59,2
U14019Z1,"Olbramovice, restaurace",48.984167,16.400743,"449",0,U14019N60,2
U14022Z1,"Šumice, škola",48.99172,16.437268,"449",0,U14022N61,2
U14014Z1,"Loděnice, křižovatka Šumická",49.011128,16.458595,"449",0,U14014N62,2
U14015Z1,"Loděnice, obecní úřad",49.011475,16.46323,"449",0,U14015N63,2
U14016Z1,"Loděnice, škola",49.011772,16.468037,"449",0,U14016N64,2
U15312Z1,"Malešovice, obecní úřad",49.02291,16.500288,"530",0,U15312N65,2
U15314Z1,"Odrovice, bytovky",49.011845,16.506925,"530",0,U15314N66,2
U15313Z1,"Odrovice",49.007024,16.51119,"530",0,U15313N67,2
U15308Z1,"Cvrčovice",48.996642,16.512835,"530",0,U15308N68,2
U15309Z1,"Cvrčovice, učiliště",48.990818,16.516293,"530",0,U15309N69,2
U15323Z1,"Pohořelice, Tyršova",48.9836,16.51948,"530",0,U15323N70,2
U15317Z1,"Pohořelice, náměstí",48.980759,16.522569,"530",0,U15317N23,2
U15317Z2,"Pohořelice, náměstí",48.980759,16.522569,"530",0,U15317N23,2
U15323Z2,"Pohořelice, Tyršova",48.98355,16.519545,"530",0,U15323N70,2
U15309Z2,"Cvrčovice, učiliště",48.990827,16.516415,"530",0,U15309N69,2
U15308Z2,"Cvrčovice",48.996653,16.512905,"530",0,U15308N68,2
U15313Z2,"Odrovice",49.00822,16.510819,"530",0,U15313N67,2
U15314Z2,"Odrovice, bytovky",49.011285,16.507306,"530",0,U15314N66,2
U15312Z2,"Malešovice, obecní úřad",49.022828,16.500475,"530",0,U15312N65,2
U14016Z2,"Loděnice, škola",49.011772,16.468037,"449",0,U14016N64,2
U14015Z2,"Loděnice, obecní úřad",49.011503,16.463197,"449",0,U14015N63,2
U14014Z2,"Loděnice, křižovatka Šumická",49.011128,16.458487,"449",0,U14014N62,2
U14022Z2,"Šumice, škola",48.991798,16.437273,"449",0,U14022N61,2
U14019Z2,"Olbramovice, restaurace",48.984233,16.400785,"449",0,U14019N60,2
U14018Z2,"Olbramovice, prodejna",48.98989,16.39586,"449",0,U14018N59,2
U14012Z2,"Kubšice, křižovatka",49.002052,16.408448,"449",0,U14012N58,2
U14026Z2,"Vedrovice, u lípy",49.021738,16.380793,"449",0,U14026N71,2
U14025Z2,"Vedrovice, obecní úřad",49.01993,16.376853,"449",0,U14025N72,2
U15324Z2,"Pohořelice, Velký Dvůr",48.962313,16.533415,"530",0,U15324N73,2
U15316Z2,"Pohořelice, Mariánský dvůr",48.956485,16.530842,"530",0,U15316N74,2
U15326Z2,"Pohořelice, Vilémov",48.948333,16.531333,"530",0,U15326N75,2
U15714Z2,"Mikulov, železniční stanice",48.801755,16.626495,"571",0,U15714N35,2
U15709Z2,"Mikulov, u parku",48.802383,16.633735,"571",0,U15709N36,2
U15712Z2,"Mikulov, Valtická",48.800979,16.644879,"571",0,U15712N76,2
U15706Z2,"Mikulov, Na Mušlově, rozc.",48.790983,16.673762,"571",0,U15706N77,2
U15715Z2,"Sedlec, pošta",48.779203,16.691248,"582",0,U15715N78,2
U15716Z2,"Sedlec, sídliště",48.773255,16.703612,"582",0,U15716N79,2
U15800Z2,"Valtice, bažantnice",48.752871,16.738934,"582",0,U15800N80,2
U15801Z51,"Valtice, aut. st.",48.742682,16.755534,"582",0,U15801N81,2
U15801Z1,"Valtice, aut. st.",48.742835,16.755635,"582",0,U15801N81,2
U15800Z1,"Valtice, bažantnice",48.75299,16.738786,"582",0,U15800N80,2
U15716Z1,"Sedlec, sídliště",48.773327,16.703743,"582",0,U15716N79,2
U15715Z1,"Sedlec, pošta",48.779222,16.691503,"582",0,U15715N78,2
U15706Z1,"Mikulov, Na Mušlově, rozc.",48.791102,16.673913,"571",0,U15706N77,2
U15712Z1,"Mikulov, Valtická",48.801157,16.644686,"571",0,U15712N76,2
U15703Z52,"Mikulov, 22. dubna",48.80807,16.634763,"571",0,U15703N57,2
U15796Z52,"Mikulov, Hliniště",48.813457,16.645481,"571",0,U15796N82,2
U15791Z2,"Mikulov, Bezručova",48.812464,16.651058,"571",0,U15791N83,2
U15792Z1,"Mikulov, Žižkova",48.815875,16.650639,"571",0,U15792N84,2
U15793Z1,"Mikulov, Dukelská",48.813408,16.646714,"571",0,U15793N85,2
U15707Z1,"Mikulov, Pavlovská",48.810735,16.642338,"571",0,U15707N86,2
U15794Z1,"Mikulov, Pod Kozím hrádkem",48.808983,16.636108,"571",0,U15794N87,2
U15790Z1,"Mikulov, Průmyslová zóna, točna",48.813677,16.620333,"571",0,U15790N88,2
U15545Z3,"Dolní Dunajovice, rozcestí",48.852411,16.609857,"552",0,U15545N39,2
U15509Z2,"Perná, Spálená hospoda, hlavní silnice",48.862117,16.608238,"552",0,U15509N89,2
U15426Z2,"Pasohlávky, přehrada",48.905612,16.576609,"540",0,U15426N90,2
U1011Z8,"Autobusové nádraží",49.185364,16.616151,"100",0,U1011N29,2
U15168Z1,"Rajhrad, městský úřad",49.089663,16.603985,"510",0,U15168N91,2
U15181Z2,"Rajhrad, železniční stanice",49.084119,16.60501,"510",0,U15181N92,2
U15156Z2,"Holasice",49.077457,16.603721,"510",0,U15156N93,2
U15252Z2,"Vojkovice, sídliště",49.057703,16.603528,"525",0,U15252N94,2
U15251Z2,"Vojkovice",49.051898,16.607502,"525",0,U15251N95,2
U15239Z1,"Židlochovice, sídliště",49.039291,16.616336,"525",0,U15239N96,2
U15229Z6,"Židlochovice, aut. st.",49.036103,16.615072,"525",0,U15229N97,2
U15229Z1,"Židlochovice, aut. st.",49.036178,16.614728,"525",0,U15229N97,2
U15239Z2,"Židlochovice, sídliště",49.03991,16.616314,"525",0,U15239N96,2
U15251Z1,"Vojkovice",49.052413,16.607022,"525",0,U15251N95,2
U15252Z1,"Vojkovice, sídliště",49.056112,16.604022,"525",0,U15252N94,2
U15156Z1,"Holasice",49.078553,16.604218,"510",0,U15156N93,2
U15181Z1,"Rajhrad, železniční stanice",49.084495,16.605152,"510",0,U15181N92,2
U15168Z2,"Rajhrad, městský úřad",49.089963,16.60397,"510",0,U15168N91,2
U15427Z3,"Pasohlávky, rozcestí Ivaň",48.918491,16.558356,"540",0,U15427N44,2
U15435Z1,"Pasohlávky, Aqualand Moravia",48.904459,16.575919,"540",0,U15435N98,2
U15509Z1,"Perná, Spálená hospoda, hlavní silnice",48.860197,16.608356,"552",0,U15509N89,2
U16608Z2,"Kyjov, aut. st.",49.006785,17.124327,"675",0,U16608N99,2
U16612Z2,"Kyjov, nemocnice",49.00708,17.111464,"675",0,U16612N100,2
U16622Z2,"Strážovice",49.0093,17.047132,"662",0,U16622N101,2
U16635Z2,"Stavěšice",49.002007,17.02977,"662",0,U16635N102,2
U16529Z2,"Nenkovice, škola",49.004683,17.01574,"662",0,U16529N103,2
U16528Z2,"Nenkovice, obecní úřad",49.00398,17.011083,"662",0,U16528N104,2
U16530Z2,"Nenkovice, u kašny",49.001727,17.007942,"662",0,U16530N105,2
U16534Z2,"Želetice",49.012523,17.009023,"662",0,U16534N106,2
U16533Z2,"Želetice, statek",49.015307,17.006765,"662",0,U16533N107,2
U16527Z2,"Dražůvky",49.031967,17.020073,"652",0,U16527N108,2
U16525Z2,"Archlebov",49.043193,17.003877,"652",0,U16525N109,2
U16449Z2,"Žarošice",49.040472,16.966415,"652",0,U16449N110,2
U16448Z2,"Žarošice, škola",49.039435,16.9616,"652",0,U16448N111,2
U16444Z2,"Žarošice, Silničná, rozcestí Uhřice",49.05185,16.953185,"652",0,U16444N112,2
U16446Z2,"Žarošice, Zdravá Voda",49.065466,16.945145,"643",0,U16446N113,2
U16445Z2,"Žarošice, Těšanka",49.079165,16.936537,"643",0,U16445N114,2
U16336Z2,"Heršpice, Bílý Vlk",49.095822,16.90958,"635",0,U16336N115,2
U16337Z2,"Nížkovice, rozcestí",49.11172,16.896114,"635",0,U16337N116,2
U16332Z2,"Slavkov u Brna, rozc. k žel. st. 0.5",49.14503,16.877933,"635",0,U16332N117,2
U16328Z2,"Slavkov u Brna, aut. st.",49.149057,16.876562,"635",0,U16328N118,2
U16334Z2,"Velešovice, rozc.",49.167572,16.84187,"635",0,U16334N119,2
U16206Z2,"Holubice, nadjezd",49.178267,16.819095,"620",0,U16206N120,2
U1677Z2,"Tržní",49.189407,16.629972,"100",0,U1677N121,1
U1798Z5,"Zvonařka",49.187575,16.620372,"100",0,U1798N122,1
U1011Z6,"Autobusové nádraží",49.185364,16.616151,"100",0,U1011N29,2
U1677Z3,"Tržní",49.189342,16.630314,"100",0,U1677N121,1
U16206Z1,"Holubice, nadjezd",49.178081,16.819173,"620",0,U16206N120,2
U16334Z1,"Velešovice, rozc.",49.166882,16.842802,"635",0,U16334N119,2
U16328Z3,"Slavkov u Brna, aut. st.",49.149057,16.876562,"635",0,U16328N118,2
U16332Z1,"Slavkov u Brna, rozc. k žel. st. 0.5",49.143955,16.878297,"635",0,U16332N117,2
U16337Z1,"Nížkovice, rozcestí",49.11212,16.895599,"635",0,U16337N116,2
U16336Z1,"Heršpice, Bílý Vlk",49.095813,16.909428,"635",0,U16336N115,2
U16445Z1,"Žarošice, Těšanka",49.079005,16.936517,"643",0,U16445N114,2
U16446Z1,"Žarošice, Zdravá Voda",49.065466,16.945145,"643",0,U16446N113,2
U16444Z1,"Žarošice, Silničná, rozcestí Uhřice",49.051905,16.952963,"652",0,U16444N112,2
U16448Z1,"Žarošice, škola",49.039337,16.96142,"652",0,U16448N111,2
U16449Z1,"Žarošice",49.040617,16.967482,"652",0,U16449N110,2
U16525Z1,"Archlebov",49.043113,17.00413,"652",0,U16525N109,2
U16527Z1,"Dražůvky",49.031967,17.020073,"652",0,U16527N108,2
U16533Z1,"Želetice, statek",49.01512,17.006987,"662",0,U16533N107,2
U16534Z1,"Želetice",49.012743,17.009545,"662",0,U16534N106,2
U16530Z1,"Nenkovice, u kašny",49.001777,17.008072,"662",0,U16530N105,2
U16528Z1,"Nenkovice, obecní úřad",49.004197,17.011395,"662",0,U16528N104,2
U16529Z1,"Nenkovice, škola",49.004607,17.015563,"662",0,U16529N103,2
U16635Z1,"Stavěšice",49.001868,17.029877,"662",0,U16635N102,2
U16622Z1,"Strážovice",49.0093,17.047132,"662",0,U16622N101,2
U16612Z1,"Kyjov, nemocnice",49.007073,17.111662,"675",0,U16612N100,2
U16608Z16,"Kyjov, aut. st.",49.006873,17.123912,"675",0,U16608N99,2
U16608Z8,"Kyjov, aut. st.",49.006608,17.124285,"675",0,U16608N99,2
U16817Z1,"Vlkoš",48.990855,17.16172,"685",0,U16817N123,2
U16819Z2,"Vlkoš, škola",48.985362,17.15911,"685",0,U16819N124,2
U16805Z2,"Skoronice",48.98157,17.153808,"685",0,U16805N125,2
U16801Z2,"Milotice, dvůr",48.965403,17.14059,"685",0,U16801N126,2
U16802Z2,"Milotice, náves",48.954121,17.142692,"685",0,U16802N127,2
U16804Z2,"Milotice, škola",48.954267,17.152105,"685",0,U16804N128,2
U19161Z2,"Vacenovice",48.945252,17.173992,"917",0,U19161N129,2
U19162Z2,"Vacenovice, stadion",48.939803,17.170687,"917",0,U19162N130,2
U19155Z2,"Ratíškovice, drůbežárna",48.931957,17.1689,"917",0,U19155N131,2
U19160Z2,"Ratíškovice, u Svatého Jána",48.923645,17.168112,"917",0,U19160N132,2
U19154Z4,"Ratíškovice",48.920947,17.161482,"917",0,U19154N133,2
U19159Z2,"Ratíškovice, U Hájenky",48.915532,17.160572,"917",0,U19159N134,2
U19009Z2,"Hodonín, Pánov",48.882564,17.147405,"900",0,U19009N135,2
U19003Z2,"Hodonín, cihelna",48.871897,17.146337,"900",0,U19003N136,2
U19004Z2,"Hodonín, Černý most",48.866435,17.142004,"900",0,U19004N137,2
U19007Z2,"Hodonín, lázně",48.86267,17.140467,"900",0,U19007N138,2
U19011Z2,"Hodonín, restaurace Morava",48.855442,17.133451,"900",0,U19011N139,2
U19001Z50,"Hodonín, autobusové nádraží",48.853643,17.121537,"900",0,U19001N140,2
U19001Z1,"Hodonín, autobusové nádraží",48.854157,17.122203,"900",0,U19001N140,2
U19002Z2,"Hodonín, Brněnská",48.862608,17.118852,"900",0,U19002N141,2
U19012Z2,"Hodonín, STS",48.871603,17.116652,"900",0,U19012N142,2
U19015Z2,"Hodonín, Zbrod",48.887661,17.063292,"900",0,U19015N143,2
U19103Z2,"Mutěnice, křižovatka",48.904657,17.028645,"910",0,U19103N144,2
U19104Z2,"Mutěnice, škola",48.90765,17.018955,"910",0,U19104N145,2
U16551Z2,"Hovorany, čerpací stanice",48.941833,16.98623,"660",0,U16551N146,2
U16554Z2,"Hovorany, rozcestí",48.948843,16.979543,"660",0,U16554N147,2
U16545Z2,"Čejč, náměstí",48.946227,16.966451,"660",0,U16545N148,2
U16462Z2,"Terezín",48.956778,16.940897,"650",0,U16462N149,2
U16460Z2,"Krumvíř, statek",48.981398,16.923568,"640",0,U16460N150,2
U16461Z2,"Krumvíř, železniční stanice",48.985013,16.917217,"640",0,U16461N151,2
U16457Z2,"Krumvíř, obecní úřad",48.98897,16.91042,"640",0,U16457N152,2
U16343Z2,"Klobouky u Brna, Nádražní",48.994572,16.878598,"640",0,U16343N153,2
U16348Z2,"Klobouky u Brna, samoobsluha",48.995153,16.866834,"640",0,U16348N154,2
U16345Z2,"Klobouky u Brna, náměstí",48.99538,16.85736,"640",0,U16345N155,2
U16347Z2,"Klobouky u Brna, rozcestí",49.000636,16.862186,"640",0,U16347N156,2
U16344Z2,"Klobouky u Brna, Martinice, rozcestí",49.013667,16.828293,"640",0,U16344N157,2
U15226Z2,"Těšany",49.039503,16.770935,"525",0,U15226N158,2
U15238Z1,"Těšany, u transformátoru",49.043683,16.765909,"525",0,U15238N159,2
U15224Z1,"Moutnice, u fary",49.050735,16.738813,"525",0,U15224N160,2
U15232Z2,"Moutnice, Rozařín",49.053128,16.737752,"525",0,U15232N161,2
U15167Z1,"Měnín, rozcestí",49.087318,16.716476,"610",0,U15167N162,2
U16138Z4,"Telnice",49.1024,16.717463,"610",0,U16138N163,2
U16147Z2,"Sokolnice, rozvodna",49.114771,16.705095,"610",0,U16147N164,2
U1681Z4,"Tuřany, smyčka",49.142326,16.666375,"101",0,U1681N165,1
U1131Z2,"Hanácká",49.146706,16.667371,"101",0,U1131N166,2
U1191Z2,"Ivanovické náměstí",49.153629,16.653755,"101",0,U1191N167,1
U1533Z2,"Ráječek",49.161397,16.637387,"101",0,U1533N168,2
U1256Z4,"Komárov",49.177094,16.621935,"101",0,U1256N169,1
U1011Z7,"Autobusové nádraží",49.185364,16.616151,"100",0,U1011N29,2
U16608Z12,"Kyjov, aut. st.",49.006598,17.124015,"675",0,U16608N99,2
U16820Z1,"Vlkoš, Tesko",48.987033,17.172742,"685",0,U16820N170,2
U16823Z1,"Vracov, Slokov",48.981753,17.20729,"685",0,U16823N171,2
U16822Z1,"Vracov, obecní úřad",48.97962,17.219452,"685",0,U16822N172,2
U16903Z1,"Bzenec, Nový Svět",48.97298,17.251258,"695",0,U16903N173,2
U16901Z1,"Bzenec, náměstí",48.97278,17.267467,"695",0,U16901N174,2
U16907Z1,"Bzenec, ZŠ",48.970447,17.279397,"695",0,U16907N175,2
U16900Z1,"Bzenec, Doubrava",48.961827,17.286975,"695",0,U16900N176,2
U16905Z1,"Bzenec, Přívoz, železniční stanice",48.936445,17.28984,"695",0,U16905N177,2
U16917Z1,"Bzenec, Přívoz",48.935987,17.294041,"695",0,U16917N178,2
U19204Z1,"Strážnice, ATC",48.909397,17.310663,"925",0,U19204N179,2
U19207Z1,"Strážnice, náměstí 17. listopadu",48.90244,17.318012,"925",0,U19207N180,2
U19205Z51,"Strážnice, aut. st.",48.898322,17.315938,"925",0,U19205N181,2
U19205Z2,"Strážnice, aut. st.",48.89815,17.31612,"925",0,U19205N181,2
U19207Z2,"Strážnice, náměstí 17. listopadu",48.902415,17.318367,"925",0,U19207N180,2
U19204Z2,"Strážnice, ATC",48.909397,17.310663,"925",0,U19204N179,2
U16917Z2,"Bzenec, Přívoz",48.936826,17.29381,"695",0,U16917N178,2
U16900Z2,"Bzenec, Doubrava",48.961533,17.287165,"695",0,U16900N176,2
U16907Z2,"Bzenec, ZŠ",48.970537,17.279883,"695",0,U16907N175,2
U16901Z2,"Bzenec, náměstí",48.973247,17.265269,"695",0,U16901N174,2
U16903Z2,"Bzenec, Nový Svět",48.972955,17.251683,"695",0,U16903N173,2
U16822Z2,"Vracov, obecní úřad",48.979768,17.21934,"685",0,U16822N172,2
U16823Z2,"Vracov, Slokov",48.98178,17.208207,"685",0,U16823N171,2
U16820Z2,"Vlkoš, Tesko",48.987175,17.172433,"685",0,U16820N170,2
U16817Z2,"Vlkoš",48.990744,17.162083,"685",0,U16817N123,2
U1716Z4,"Úzká",49.189193,16.613578,"100",0,U1716N182,1
U1011Z2,"Autobusové nádraží",49.185245,16.613024,"100",0,U1011N29,1
U1798Z6,"Zvonařka",49.186968,16.618725,"100",0,U1798N122,1
U1144Z1,"Hladíkova",49.187682,16.625353,"100",0,U1144N183,1
U1207Z1,"Jiránkova",49.187495,16.633494,"100",0,U1207N184,2
U1563Z1,"Psychiatrická nemocnice",49.185089,16.636321,"100",0,U1563N185,2
U1662Z1,"Textilní kombinát",49.182496,16.637572,"100",0,U1662N186,2
U1106Z1,"Faměrovo náměstí",49.176788,16.64042,"101",0,U1106N187,2
U1106Z2,"Faměrovo náměstí",49.176954,16.640512,"101",0,U1106N187,2
U1662Z2,"Textilní kombinát",49.18111,16.63826,"100",0,U1662N186,2
U1563Z2,"Psychiatrická nemocnice",49.185039,16.636538,"100",0,U1563N185,2
U1207Z2,"Jiránkova",49.187576,16.633483,"100",0,U1207N184,2
U1144Z2,"Hladíkova",49.187865,16.625741,"100",0,U1144N183,1
U1798Z2,"Zvonařka",49.187778,16.618175,"100",0,U1798N122,2
U1716Z3,"Úzká",49.189349,16.613974,"100",0,U1716N182,1
U16439Z1,"Násedlovice",49.012065,16.95905,"652",0,U16439N188,2
U16438Z1,"Násedlovice, u hřiště",49.009217,16.95822,"652",0,U16438N189,2
U16437Z1,"Násedlovice, mlýn",49.007262,16.966958,"652",0,U16437N190,2
U16608Z1,"Kyjov, aut. st.",49.006785,17.124327,"675",0,U16608N99,2
U16437Z2,"Násedlovice, mlýn",49.007317,16.966767,"652",0,U16437N190,2
U16438Z2,"Násedlovice, u hřiště",49.00918,16.958217,"652",0,U16438N189,2
U16439Z2,"Násedlovice",49.01113,16.957133,"652",0,U16439N188,2
U16608Z14,"Kyjov, aut. st.",49.006415,17.124242,"675",0,U16608N99,2
U16619Z2,"Sobůlky, ZD",49.017682,17.080587,"662",0,U16619N191,2
U16620Z2,"Sobůlky",49.02127,17.078505,"662",0,U16620N192,2
U16531Z2,"Věteřov",49.028368,17.056237,"662",0,U16531N193,2
U16526Z2,"Dražůvky, rozcestí",49.039952,17.022837,"652",0,U16526N194,2
U16527Z3,"Dražůvky",49.031967,17.020073,"652",0,U16527N108,2
U16526Z1,"Dražůvky, rozcestí",49.039815,17.022695,"652",0,U16526N194,2
U16531Z1,"Věteřov",49.02866,17.055782,"662",0,U16531N193,2
U16620Z1,"Sobůlky",49.021408,17.078633,"662",0,U16620N192,2
U16619Z1,"Sobůlky, ZD",49.017792,17.080708,"662",0,U16619N191,2
U17423Z7,"Vyškov, Autobusové nádraží",49.275942,16.991855,"740",0,U17423N195,2
U17434Z1,"Vyškov, nemocnice",49.276367,16.981935,"740",0,U17434N196,2
U17344Z2,"Tučapy, rozcestí",49.227053,16.915262,"730",0,U17344N197,2
U17311Z4,"Komořany, EDP",49.219687,16.904328,"730",0,U17311N198,2
U17331Z2,"Rousínov, Čechyně, rozcestí",49.207575,16.892772,"730",0,U17331N199,2
U17335Z3,"Rousínov, autobusová stanice",49.203043,16.885015,"730",0,U17335N200,2
U1011Z5,"Autobusové nádraží",49.185364,16.616151,"100",0,U1011N29,2
U17335Z2,"Rousínov, autobusová stanice",49.203043,16.885015,"730",0,U17335N200,2
U17331Z1,"Rousínov, Čechyně, rozcestí",49.207062,16.891572,"730",0,U17331N199,2
U17311Z3,"Komořany, EDP",49.220008,16.905058,"730",0,U17311N198,2
U17344Z1,"Tučapy, rozcestí",49.227308,16.915917,"730",0,U17344N197,2
U17328Z1,"Luleč, rozcestí",49.248113,16.944733,"730",0,U17328N201,2
U17428Z1,"Vyškov, Drnovská Bioveta",49.254302,16.95682,"740",0,U17428N202,2
U17435Z1,"Vyškov, Nouzka",49.266527,16.980512,"740",0,U17435N203,2
U17429Z1,"Vyškov, garáže ČSAD",49.271332,16.989108,"740",0,U17429N204,2
U17423Z21,"Vyškov, Autobusové nádraží",49.275819,16.992078,"740",0,U17423N195,2
U17335Z7,"Rousínov, autobusová stanice",49.203043,16.885015,"730",0,U17335N200,2
U17337Z2,"Rousínov, rozc. k žel. st.",49.198932,16.870287,"730",0,U17337N205,2
U17348Z2,"Velešovice, u mostu",49.186552,16.841008,"730",0,U17348N206,2
U17345Z1,"Velešovice",49.180645,16.848503,"730",0,U17345N207,2
U17348Z1,"Velešovice, u mostu",49.186447,16.84118,"730",0,U17348N206,2
U17349Z2,"Velešovice, Za Mlýnem",49.18795,16.838875,"730",0,U17349N208,2
U16210Z2,"Kovalovice, Stará pošta",49.184955,16.825757,"620",0,U16210N209,2
U16205Z2,"Holubice, kruh",49.184597,16.799528,"620",0,U16205N210,2
U16105Z2,"Jiříkovice, motorest Rohlenka",49.183667,16.760583,"610",0,U16105N211,2
U16130Z2,"Šlapanice, Bedřichovice, rozc.",49.182939,16.72281,"610",0,U16130N212,2
U1577Z6,"Slatina, sídliště",49.18229,16.690089,"101",0,U1577N213,2
U1068Z2,"Černovičky",49.183486,16.667207,"101",0,U1068N214,1
U1011Z4,"Autobusové nádraží",49.185364,16.616151,"100",0,U1011N29,2
U1068Z3,"Černovičky",49.18315,16.669089,"101",0,U1068N214,1
U1577Z5,"Slatina, sídliště",49.182195,16.690725,"101",0,U1577N213,2
U16130Z1,"Šlapanice, Bedřichovice, rozc.",49.182819,16.722794,"610",0,U16130N212,2
U16105Z1,"Jiříkovice, motorest Rohlenka",49.183436,16.761042,"610",0,U16105N211,2
U16205Z1,"Holubice, kruh",49.184495,16.799497,"620",0,U16205N210,2
U16210Z1,"Kovalovice, Stará pošta",49.184957,16.825765,"620",0,U16210N209,2
U17349Z1,"Velešovice, Za Mlýnem",49.187748,16.838822,"730",0,U17349N208,2
U17337Z1,"Rousínov, rozc. k žel. st.",49.20011,16.870547,"730",0,U17337N205,2
U17335Z1,"Rousínov, autobusová stanice",49.203043,16.885015,"730",0,U17335N200,2
U17335Z6,"Rousínov, autobusová stanice",49.203043,16.885015,"730",0,U17335N200,2
U17343Z1,"Tučapy, obecní úřad",49.232287,16.917902,"730",0,U17343N215,2
U17317Z1,"Nemojany",49.246498,16.915268,"730",0,U17317N216,2
U17316Z1,"Luleč, rozc. k žel. st.",49.250822,16.921027,"730",0,U17316N217,2
U17315Z1,"Luleč, obecní úřad",49.253993,16.929762,"730",0,U17315N218,2
U17314Z1,"Luleč, kamenolom",49.261913,16.937098,"730",0,U17314N219,2
U17305Z1,"Drnovice, Na vrchu",49.270722,16.950341,"730",0,U17305N220,2
U17304Z2,"Drnovice",49.276472,16.952117,"730",0,U17304N221,2
U17434Z2,"Vyškov, nemocnice",49.276242,16.98279,"740",0,U17434N196,2
U17423Z14,"Vyškov, Autobusové nádraží",49.275723,16.991653,"740",0,U17423N195,2
U17304Z1,"Drnovice",49.276625,16.952048,"730",0,U17304N221,2
U17305Z2,"Drnovice, Na vrchu",49.27033,16.948092,"730",0,U17305N220,2
U17314Z2,"Luleč, kamenolom",49.26186,16.936918,"730",0,U17314N219,2
U17315Z2,"Luleč, obecní úřad",49.253993,16.929762,"730",0,U17315N218,2
U17316Z2,"Luleč, rozc. k žel. st.",49.250728,16.920762,"730",0,U17316N217,2
U17317Z2,"Nemojany",49.246447,16.915287,"730",0,U17317N216,2
U17343Z2,"Tučapy, obecní úřad",49.232287,16.917902,"730",0,U17343N215,2
U17335Z21,"Rousínov, autobusová stanice",49.203043,16.885015,"730",0,U17335N200,2
U17423Z2,"Vyškov, Autobusové nádraží",49.275878,16.99145,"740",0,U17423N195,2
U17446Z1,"Vyškov, železniční stanice",49.278115,16.992202,"740",0,U17446N222,2
U17427Z1,"Vyškov, Dělnický dům",49.280365,16.995232,"740",0,U17427N223,2
U17440Z1,"Vyškov, Rostex",49.283558,16.990612,"740",0,U17440N224,2
U17431Z1,"Vyškov, hotel Dukla",49.28524,16.986955,"740",0,U17431N225,2
U17426Z1,"Vyškov, Dědice, u hřbitova",49.28952,16.981548,"740",0,U17426N226,2
U17424Z1,"Vyškov, Dědice, nám. Svobody",49.29417,16.979015,"740",0,U17424N227,2
U17445Z1,"Vyškov, Dědice, kasárna",49.300943,16.98151,"740",0,U17445N228,2
U17425Z1,"Vyškov, Dědice, rozc. Opatovice",49.29812,16.973313,"740",0,U17425N229,2
U17430Z1,"Vyškov, Hamiltony",49.305332,16.969203,"740",0,U17430N230,2
U17433Z1,"Vyškov, Lhota, u školy",49.309775,16.955875,"740",0,U17433N231,2
U17432Z1,"Vyškov, Lhota",49.311585,16.948827,"740",0,U17432N232,2
U17439Z1,"Vyškov, Pařezovice, rozc.",49.320457,16.935295,"740",0,U17439N233,2
U17441Z1,"Vyškov, Rychtářov",49.327197,16.919003,"740",0,U17441N234,2
U17442Z1,"Vyškov, Rychtářov, Rohlina",49.331723,16.910468,"740",0,U17442N235,2
U17447Z1,"Studnice, Doubrava",49.359083,16.887012,"745",0,U17447N236,2
U12412Z1,"Studnice",49.375665,16.879715,"240",0,U12412N237,2
U12413Z1,"Studnice, Odrůvky",49.394393,16.882133,"240",0,U12413N238,2
U12405Z1,"Nové Sady",49.408905,16.901903,"240",0,U12405N239,2
U12405Z2,"Nové Sady",49.408905,16.901903,"240",0,U12405N239,2
U12413Z2,"Studnice, Odrůvky",49.39438,16.882065,"240",0,U12413N238,2
U12412Z2,"Studnice",49.375665,16.879715,"240",0,U12412N237,2
U17447Z2,"Studnice, Doubrava",49.359083,16.887005,"745",0,U17447N236,2
U17443Z2,"Vyškov, Rychtářov, točna",49.330324,16.912508,"740",0,U17443N240,2
U17441Z2,"Vyškov, Rychtářov",49.327197,16.919003,"740",0,U17441N234,2
U17439Z2,"Vyškov, Pařezovice, rozc.",49.320483,16.93506,"740",0,U17439N233,2
U17432Z2,"Vyškov, Lhota",49.311497,16.948407,"740",0,U17432N232,2
U17433Z2,"Vyškov, Lhota, u školy",49.309547,16.956648,"740",0,U17433N231,2
U17430Z2,"Vyškov, Hamiltony",49.305315,16.969123,"740",0,U17430N230,2
U17425Z2,"Vyškov, Dědice, rozc. Opatovice",49.298063,16.973245,"740",0,U17425N229,2
U17424Z2,"Vyškov, Dědice, nám. Svobody",49.293627,16.97917,"740",0,U17424N227,2
U17426Z2,"Vyškov, Dědice, u hřbitova",49.288997,16.981807,"740",0,U17426N226,2
U17431Z2,"Vyškov, hotel Dukla",49.285237,16.986958,"740",0,U17431N225,2
U17440Z2,"Vyškov, Rostex",49.283392,16.99069,"740",0,U17440N224,2
U17427Z2,"Vyškov, Dělnický dům",49.280487,16.994993,"740",0,U17427N223,2
U17446Z2,"Vyškov, železniční stanice",49.278112,16.992207,"740",0,U17446N222,2
U17423Z12,"Vyškov, Autobusové nádraží",49.275648,16.991752,"740",0,U17423N195,2
U17303Z1,"Drnovice, Na žlebě",49.275992,16.939463,"730",0,U17303N241,2
U17323Z1,"Račice-Pístovice, Pístovice, na kopci",49.275958,16.908655,"730",0,U17323N242,2
U17324Z1,"Račice-Pístovice, Pístovice",49.273792,16.895212,"730",0,U17324N243,2
U17327Z1,"Račice-Pístovice, Račice, ZD",49.274762,16.88113,"730",0,U17327N244,2
U17325Z1,"Račice-Pístovice, Račice",49.2763,16.872358,"730",0,U17325N245,2
U17326Z1,"Račice-Pístovice, Račice, točna",49.277937,16.871397,"730",0,U17326N246,2
U17326Z2,"Račice-Pístovice, Račice, točna",49.277937,16.871397,"730",0,U17326N246,2
U17325Z2,"Račice-Pístovice, Račice",49.276157,16.87248,"730",0,U17325N245,2
U17327Z2,"Račice-Pístovice, Račice, ZD",49.27452,16.881328,"730",0,U17327N244,2
U17324Z2,"Račice-Pístovice, Pístovice",49.273792,16.895212,"730",0,U17324N243,2
U17323Z2,"Račice-Pístovice, Pístovice, na kopci",49.275922,16.909412,"730",0,U17323N242,2
U17303Z2,"Drnovice, Na žlebě",49.275992,16.939463,"730",0,U17303N241,2
U17443Z1,"Vyškov, Rychtářov, točna",49.330324,16.912508,"740",0,U17443N240,2
U17335Z4,"Rousínov, autobusová stanice",49.203043,16.885015,"730",0,U17335N200,2
U17346Z2,"Velešovice, obecní úřad",49.179512,16.847277,"730",0,U17346N247,2
U17347Z2,"Velešovice, u hřiště",49.175273,16.846278,"730",0,U17347N248,2
U16331Z1,"Slavkov u Brna, poliklinika",49.156228,16.87922,"635",0,U16331N249,2
U16328Z8,"Slavkov u Brna, aut. st.",49.148898,16.876145,"635",0,U16328N118,2
U16328Z10,"Slavkov u Brna, aut. st.",49.148898,16.876145,"635",0,U16328N118,2
U17347Z1,"Velešovice, u hřiště",49.175896,16.846738,"730",0,U17347N248,2
U17346Z1,"Velešovice, obecní úřad",49.179572,16.847348,"730",0,U17346N247,2
U17335Z9,"Rousínov, autobusová stanice",49.203043,16.885015,"730",0,U17335N200,2
U17423Z11,"Vyškov, Autobusové nádraží",49.275648,16.991752,"740",0,U17423N195,2
U17309Z1,"Ježkovice, u hřbitova",49.295678,16.901865,"730",0,U17309N250,2
U17308Z1,"Ježkovice, točna",49.2988,16.893695,"730",0,U17308N251,2
U17354Z1,"Ruprechtov, hájenka",49.321677,16.861782,"735",0,U17354N252,2
U17355Z1,"Ruprechtov, u hřbitova",49.325702,16.851392,"735",0,U17355N253,2
U17353Z1,"Ruprechtov",49.329415,16.849047,"735",0,U17353N254,2
U17351Z1,"Podomí",49.344988,16.83314,"735",0,U17351N255,2
U12306Z2,"Krásensko, ZD",49.360273,16.831087,"230",0,U12306N256,2
U12305Z2,"Krásensko",49.365188,16.828902,"230",0,U12305N257,2
U12305Z1,"Krásensko",49.365043,16.829253,"230",0,U12305N257,2
U12306Z1,"Krásensko, ZD",49.360273,16.831087,"230",0,U12306N256,2
U17351Z2,"Podomí",49.344952,16.833072,"735",0,U17351N255,2
U17353Z2,"Ruprechtov",49.329103,16.84926,"735",0,U17353N254,2
U17355Z2,"Ruprechtov, u hřbitova",49.325693,16.851397,"735",0,U17355N253,2
U17354Z2,"Ruprechtov, hájenka",49.321677,16.861782,"735",0,U17354N252,2
U17308Z2,"Ježkovice, točna",49.298353,16.894215,"730",0,U17308N251,2
U17309Z2,"Ježkovice, u hřbitova",49.295572,16.901925,"730",0,U17309N250,2
U17438Z1,"Vyškov, Opatovice, u mlýna",49.300165,16.957503,"740",0,U17438N258,2
U17437Z1,"Vyškov, Opatovice, náves",49.302252,16.954362,"740",0,U17437N259,2
U17436Z1,"Vyškov, Opatovice, bytovky",49.300683,16.958572,"740",0,U17436N260,2
U16333Z1,"Slavkov u Brna, žel. st.",49.144747,16.87383,"635",0,U16333N261,2
U16324Z2,"Nížkovice, u hřiště",49.107553,16.898418,"635",0,U16324N262,2
U16312Z2,"Kobeřice, na kopci",49.09734,16.888722,"635",0,U16312N263,2
U16313Z2,"Kobeřice, pohostinství",49.091723,16.88588,"635",0,U16313N264,2
U16313Z1,"Kobeřice, pohostinství",49.091723,16.88588,"635",0,U16313N264,2
U16312Z1,"Kobeřice, na kopci",49.09734,16.888722,"635",0,U16312N263,2
U16324Z1,"Nížkovice, u hřiště",49.107402,16.898368,"635",0,U16324N262,2
U16322Z1,"Nížkovice",49.10952,16.900963,"635",0,U16322N265,2
U16323Z1,"Nížkovice, Na hraničkách",49.11181,16.906248,"635",0,U16323N266,2
U16307Z1,"Heršpice",49.119358,16.913313,"635",0,U16307N267,2
U16308Z1,"Heršpice, zelnice",49.122422,16.910233,"635",0,U16308N268,2
U16333Z2,"Slavkov u Brna, žel. st.",49.144747,16.87383,"635",0,U16333N261,2
U18009Z13,"Znojmo, autobusové nádraží",48.851706,16.057086,"800",0,U18009N269,2
U18022Z1,"Znojmo, Vídeňská, u školy",48.843183,16.060932,"800",0,U18022N270,2
U18040Z2,"Znojmo, Dukelská, u mostu",48.837405,16.066682,"800",0,U18040N271,2
U18055Z1,"Znojmo, Načeratice, host.",48.818411,16.110672,"800",0,U18055N272,2
U18054Z1,"Znojmo, Derflice",48.8096,16.140661,"800",0,U18054N273,2
U18129Z1,"Strachotice, obecní úřad",48.79636,16.172543,"810",0,U18129N274,2
U18131Z1,"Strachotice, Micmanice",48.795962,16.183967,"810",0,U18131N275,2
U18277Z1,"Slup",48.781372,16.199545,"829",0,U18277N276,2
U18278Z1,"Slup, Oleksovičky, rozcestí",48.77529,16.207227,"829",0,U18278N277,2
U18274Z1,"Jaroslavice",48.757258,16.233215,"829",0,U18274N278,2
U18359Z2,"Hrádek, kulturní dům",48.775425,16.269938,"839",0,U18359N279,2
U18357Z2,"Dyjákovice, nad hostincem",48.772632,16.29921,"839",0,U18357N280,2
U18358Z1,"Dyjákovice, škola",48.772805,16.303553,"839",0,U18358N281,2
U15775Z3,"Hevlín, škola",48.75151,16.380257,"570",0,U15775N1,2
U15775Z4,"Hevlín, škola",48.751285,16.380187,"570",0,U15775N1,2
U18358Z2,"Dyjákovice, škola",48.772805,16.303553,"839",0,U18358N281,2
U18357Z1,"Dyjákovice, nad hostincem",48.772692,16.299182,"839",0,U18357N280,2
U18359Z1,"Hrádek, kulturní dům",48.77582,16.269665,"839",0,U18359N279,2
U18274Z2,"Jaroslavice",48.757258,16.233215,"829",0,U18274N278,2
U18278Z2,"Slup, Oleksovičky, rozcestí",48.775378,16.207205,"829",0,U18278N277,2
U18279Z2,"Slup, Oleksovičky, u mostu",48.780555,16.21034,"829",0,U18279N282,2
U18277Z2,"Slup",48.781508,16.199292,"829",0,U18277N276,2
U18131Z2,"Strachotice, Micmanice",48.796048,16.18393,"810",0,U18131N275,2
U18129Z2,"Strachotice, obecní úřad",48.796507,16.172722,"810",0,U18129N274,2
U18054Z2,"Znojmo, Derflice",48.80978,16.140364,"800",0,U18054N273,2
U18055Z2,"Znojmo, Načeratice, host.",48.818567,16.110561,"800",0,U18055N272,2
U18040Z1,"Znojmo, Dukelská, u mostu",48.837955,16.066447,"800",0,U18040N271,2
U18022Z2,"Znojmo, Vídeňská, u školy",48.843794,16.060496,"800",0,U18022N270,2
U18009Z51,"Znojmo, autobusové nádraží",48.851908,16.056983,"800",0,U18009N269,2
U18009Z1,"Znojmo, autobusové nádraží",48.851886,16.057356,"800",0,U18009N269,2
U18126Z2,"Práče, rozcestí",48.870848,16.202622,"810",0,U18126N283,2
U18214Z2,"Lechovice, obecní úřad",48.872568,16.221965,"820",0,U18214N284,2
U18215Z2,"Lechovice, zámek",48.875885,16.236996,"820",0,U18215N285,2
U18217Z2,"Oleksovice, rozcestí",48.887523,16.260499,"820",0,U18217N286,2
U15557Z2,"Mackovice, rozcestí",48.901053,16.294054,"459",0,U15557N287,2
U14557Z2,"Miroslav, Kašenec, státní silnice",48.91853,16.33381,"459",0,U14557N288,2
U14552Z2,"Miroslav, rozcestí",48.933616,16.362524,"459",0,U14552N289,2
U14024Z2,"Trnové Pole, rozcestí",48.955186,16.413722,"449",0,U14024N290,2
U14011Z2,"Branišovice, státní silnice",48.959163,16.430035,"449",0,U14011N291,2
U15320Z2,"Pohořelice, obchodní akademie",48.978585,16.505427,"530",0,U15320N292,2
U1011Z11,"Autobusové nádraží",49.185364,16.616151,"100",0,U1011N29,2
U15317Z6,"Pohořelice, náměstí",48.980769,16.522127,"530",0,U15317N23,2
U15320Z1,"Pohořelice, obchodní akademie",48.978628,16.505258,"530",0,U15320N292,2
U14011Z1,"Branišovice, státní silnice",48.959107,16.428737,"449",0,U14011N291,2
U14024Z1,"Trnové Pole, rozcestí",48.955275,16.413453,"449",0,U14024N290,2
U14552Z1,"Miroslav, rozcestí",48.933498,16.362293,"459",0,U14552N289,2
U14557Z1,"Miroslav, Kašenec, státní silnice",48.918435,16.33352,"459",0,U14557N288,2
U15557Z1,"Mackovice, rozcestí",48.900637,16.292692,"459",0,U15557N287,2
U18217Z1,"Oleksovice, rozcestí",48.887532,16.260192,"820",0,U18217N286,2
U18215Z1,"Lechovice, zámek",48.875338,16.236347,"820",0,U18215N285,2
U18214Z1,"Lechovice, obecní úřad",48.872558,16.222179,"820",0,U18214N284,2
U18126Z1,"Práče, rozcestí",48.870832,16.201362,"810",0,U18126N283,2
U18058Z2,"Znojmo, nám.Republiky",48.853358,16.053714,"800",0,U18058N293,2
U10002Z1,"Expres Brno",49.185531,16.616317,"100",0,U10002N294,2
U1011Z13,"Autobusové nádraží",49.185364,16.616151,"100",0,U1011N29,2
U10001Z1,"Expres Znojmo",48.851908,16.056983,"800",0,U10001N295,2
U14552Z4,"Miroslav, rozcestí",48.933498,16.362293,"459",0,U14552N289,2
U14551Z2,"Miroslav, Réna",48.93358,16.337223,"459",0,U14551N296,2
U14550Z2,"Miroslav, provozovna ČAS",48.941947,16.321227,"459",0,U14550N297,2
U14554Z2,"Miroslav, statek",48.945973,16.317908,"459",0,U14554N298,2
U14546Z2,"Miroslav, autobusové nádraží",48.946832,16.313061,"459",0,U14546N299,2
U14546Z4,"Miroslav, autobusové nádraží",48.947111,16.31297,"459",0,U14546N299,2
U14549Z2,"Miroslav, kostel",48.950238,16.313682,"459",0,U14549N300,2
U14532Z4,"Kadov",48.982415,16.28708,"458",0,U14532N301,2
U14532Z3,"Kadov",48.982225,16.287139,"458",0,U14532N301,2
U14549Z1,"Miroslav, kostel",48.95009,16.313703,"459",0,U14549N300,2
U14546Z10,"Miroslav, autobusové nádraží",48.94661,16.313115,"459",0,U14546N299,2
U14546Z3,"Miroslav, autobusové nádraží",48.946991,16.312997,"459",0,U14546N299,2
U14554Z1,"Miroslav, statek",48.946,16.317705,"459",0,U14554N298,2
U14550Z1,"Miroslav, provozovna ČAS",48.941983,16.321138,"459",0,U14550N297,2
U14551Z1,"Miroslav, Réna",48.933435,16.337422,"459",0,U14551N296,2
U14543Z2,"Hostěradice, náměstí",48.950522,16.259511,"459",0,U14543N302,2
U14542Z1,"Hostěradice, lom",48.94687,16.265652,"459",0,U14542N303,2
U14548Z1,"Miroslav, jesle",48.94488,16.30781,"459",0,U14548N304,2
U14552Z3,"Miroslav, rozcestí",48.933616,16.362524,"459",0,U14552N289,2
U15550Z2,"Damnice",48.920087,16.373648,"550",0,U15550N305,2
U15551Z1,"Dolenice",48.909272,16.364848,"550",0,U15551N306,2
U15551Z2,"Dolenice",48.909272,16.364848,"550",0,U15551N306,2
U15550Z1,"Damnice",48.920138,16.373542,"550",0,U15550N305,2
U15552Z3,"Jiřice u Miroslavi",48.920697,16.39138,"550",0,U15552N14,2
U14552Z14,"Miroslav, rozcestí",48.933498,16.362293,"459",0,U14552N289,2
U14565Z2,"Suchohrdly u Miroslavi",48.943012,16.363188,"459",0,U14565N307,2
U14548Z2,"Miroslav, jesle",48.945453,16.308063,"459",0,U14548N304,2
U14542Z2,"Hostěradice, lom",48.947002,16.264753,"459",0,U14542N303,2
U14543Z1,"Hostěradice, náměstí",48.950642,16.259606,"459",0,U14543N302,2
U16353Z1,"Kašnice",48.996567,16.8829,"640",0,U16353N308,2
U16356Z1,"Klobouky u Brna, hřbitov",48.998318,16.862927,"640",0,U16356N309,2
U16342Z2,"Borkovany, Štoček",49.024797,16.812873,"630",0,U16342N310,2
U16340Z2,"Borkovany",49.028703,16.80985,"630",0,U16340N311,2
U16341Z2,"Borkovany, Tomášov",49.029167,16.8048,"630",0,U16341N312,2
U1256Z3,"Komárov",49.17444,16.622448,"101",0,U1256N169,1
U1533Z1,"Ráječek",49.160802,16.638242,"101",0,U1533N168,2
U1191Z1,"Ivanovické náměstí",49.153066,16.653791,"101",0,U1191N167,1
U1131Z7,"Hanácká",49.146163,16.665974,"101",0,U1131N166,2
U1681Z3,"Tuřany, smyčka",49.141779,16.666958,"101",0,U1681N165,1
U16147Z1,"Sokolnice, rozvodna",49.115062,16.704663,"610",0,U16147N164,2
U16138Z3,"Telnice",49.101602,16.717823,"610",0,U16138N163,2
U15167Z2,"Měnín, rozcestí",49.087125,16.716473,"610",0,U15167N162,2
U15227Z1,"Těšany, u váhy",49.041022,16.764925,"525",0,U15227N313,2
U15226Z1,"Těšany",49.039299,16.771319,"525",0,U15226N158,2
U16341Z1,"Borkovany, Tomášov",49.029118,16.804862,"630",0,U16341N312,2
U16340Z1,"Borkovany",49.028483,16.809738,"630",0,U16340N311,2
U16342Z1,"Borkovany, Štoček",49.024727,16.812867,"630",0,U16342N310,2
U16344Z1,"Klobouky u Brna, Martinice, rozcestí",49.013442,16.828372,"640",0,U16344N157,2
U16347Z1,"Klobouky u Brna, rozcestí",49.000525,16.862658,"640",0,U16347N156,2
U16345Z1,"Klobouky u Brna, náměstí",48.99538,16.85736,"640",0,U16345N155,2
U16353Z2,"Kašnice",48.996533,16.882788,"640",0,U16353N308,2
U16457Z1,"Krumvíř, obecní úřad",48.988888,16.910692,"640",0,U16457N152,2
U16461Z1,"Krumvíř, železniční stanice",48.984948,16.917183,"640",0,U16461N151,2
U16460Z1,"Krumvíř, statek",48.981398,16.923422,"640",0,U16460N150,2
U16462Z1,"Terezín",48.956737,16.940727,"650",0,U16462N149,2
U16545Z1,"Čejč, náměstí",48.945868,16.966935,"660",0,U16545N148,2
U16554Z1,"Hovorany, rozcestí",48.948342,16.979912,"660",0,U16554N147,2
U16551Z1,"Hovorany, čerpací stanice",48.941702,16.986192,"660",0,U16551N146,2
U19104Z1,"Mutěnice, škola",48.90752,17.019163,"910",0,U19104N145,2
U19103Z1,"Mutěnice, křižovatka",48.904497,17.028817,"910",0,U19103N144,2
U19015Z1,"Hodonín, Zbrod",48.887819,17.066033,"900",0,U19015N143,2
U19012Z1,"Hodonín, STS",48.870733,17.116435,"900",0,U19012N142,2
U19002Z1,"Hodonín, Brněnská",48.862476,17.118758,"900",0,U19002N141,2
U15232Z1,"Moutnice, Rozařín",49.053168,16.737742,"525",0,U15232N161,2
U15224Z2,"Moutnice, u fary",49.050525,16.73877,"525",0,U15224N160,2
U16350Z1,"Klobouky u Brna, škola",48.9971,16.866006,"640",0,U16350N314,2
U1011Z12,"Autobusové nádraží",49.185364,16.616151,"100",0,U1011N29,2
U16348Z1,"Klobouky u Brna, samoobsluha",48.995079,16.867518,"640",0,U16348N154,2
U16343Z1,"Klobouky u Brna, Nádražní",48.994411,16.879339,"640",0,U16343N153,2
U19001Z10,"Hodonín, autobusové nádraží",48.854197,17.121785,"900",0,U19001N140,2
U19013Z2,"Hodonín, u podjezdu",48.851106,17.113951,"900",0,U19013N315,2
U19005Z2,"Hodonín, Kapřiska",48.85238,17.106683,"900",0,U19005N316,2
U19006Z2,"Hodonín, Kapřiska, rybníky",48.848735,17.09213,"900",0,U19006N317,2
U19116Z2,"Lužice, rozcestí",48.844762,17.082766,"912",0,U19116N318,2
U19115Z2,"Lužice, obchodní dům",48.84172,17.073124,"912",0,U19115N319,2
U19117Z2,"Lužice, u školy",48.837392,17.06947,"912",0,U19117N320,2
U19118Z2,"Lužice, zdravotní středisko",48.831915,17.06716,"912",0,U19118N321,2
U19119Z2,"Lužice, železniční stanice",48.828787,17.062433,"912",0,U19119N322,2
U19124Z2,"Mikulčice, Těšice",48.821433,17.059055,"912",0,U19124N323,2
U19123Z2,"Mikulčice, obecní úřad",48.817077,17.051029,"912",0,U19123N324,2
U19120Z2,"Mikulčice, cihelna",48.816452,17.047072,"912",0,U19120N325,2
U19126Z6,"Moravská Nová Ves, křižovatka",48.802538,17.014731,"912",0,U19126N326,2
U19129Z2,"Moravská Nová Ves, železniční stanice",48.800235,17.021555,"912",0,U19129N327,2
U19126Z2,"Moravská Nová Ves, křižovatka",48.80274,17.014565,"912",0,U19126N326,2
U15827Z2,"Týnec, váha",48.779397,17.009901,"585",0,U15827N328,2
U15822Z2,"Tvrdonice, náměstí",48.760844,16.992709,"585",0,U15822N329,2
U15825Z2,"Tvrdonice, na konci",48.75466,16.987223,"585",0,U15825N330,2
U15815Z2,"Kostice, obecní úřad",48.746637,16.98163,"585",0,U15815N331,2
U15814Z2,"Kostice, Lanžhotská",48.742457,16.978895,"585",0,U15814N332,2
U15821Z2,"Lanžhot, u mostu",48.729017,16.97302,"585",0,U15821N333,2
U15817Z2,"Lanžhot, autobusové nádraží",48.725228,16.967318,"585",0,U15817N334,2
U15820Z2,"Lanžhot, obchodní středisko",48.728897,16.963605,"585",0,U15820N335,2
U15816Z2,"Kostice, váha",48.746252,16.924458,"585",0,U15816N336,2
U15739Z2,"Břeclav, Pohansko, rozcestí",48.749547,16.900357,"575",0,U15739N337,2
U15729Z52,"Břeclav, autobusové nádraží",48.755026,16.893544,"575",0,U15729N338,2
U15736Z2,"Břeclav, náměstí TGM, kostel",48.759307,16.880753,"575",0,U15736N339,2
U15738Z2,"Břeclav, nemocnice",48.753083,16.882015,"575",0,U15738N340,2
U15738Z1,"Břeclav, nemocnice",48.753185,16.881502,"575",0,U15738N340,2
U15737Z2,"Břeclav, náměstí TGM, městský úřad",48.759922,16.881257,"575",0,U15737N341,2
U15729Z3,"Břeclav, autobusové nádraží",48.755026,16.893544,"575",0,U15729N338,2
U15730Z1,"Břeclav, BORS",48.75025,16.893111,"575",0,U15730N342,2
U15739Z1,"Břeclav, Pohansko, rozcestí",48.749445,16.898955,"575",0,U15739N337,2
U15816Z1,"Kostice, váha",48.746092,16.924628,"585",0,U15816N336,2
U15820Z1,"Lanžhot, obchodní středisko",48.72902,16.963417,"585",0,U15820N335,2
U15817Z1,"Lanžhot, autobusové nádraží",48.725332,16.967657,"585",0,U15817N334,2
U15819Z1,"Lanžhot, Jednota",48.722797,16.957856,"585",0,U15819N343,2
U15821Z1,"Lanžhot, u mostu",48.729132,16.973225,"585",0,U15821N333,2
U15814Z1,"Kostice, Lanžhotská",48.742527,16.97899,"585",0,U15814N332,2
U15815Z1,"Kostice, obecní úřad",48.74615,16.981497,"585",0,U15815N331,2
U15825Z1,"Tvrdonice, na konci",48.754637,16.987277,"585",0,U15825N330,2
U15822Z1,"Tvrdonice, náměstí",48.760926,16.992828,"585",0,U15822N329,2
U15827Z1,"Týnec, váha",48.779367,17.010084,"585",0,U15827N328,2
U19126Z1,"Moravská Nová Ves, křižovatka",48.802538,17.014731,"912",0,U19126N326,2
U19129Z1,"Moravská Nová Ves, železniční stanice",48.800235,17.021555,"912",0,U19129N327,2
U19126Z3,"Moravská Nová Ves, křižovatka",48.80274,17.014565,"912",0,U19126N326,2
U19120Z1,"Mikulčice, cihelna",48.816452,17.047072,"912",0,U19120N325,2
U19123Z1,"Mikulčice, obecní úřad",48.817295,17.051309,"912",0,U19123N324,2
U19124Z1,"Mikulčice, Těšice",48.821571,17.059021,"912",0,U19124N323,2
U19119Z1,"Lužice, železniční stanice",48.828748,17.062623,"912",0,U19119N322,2
U19118Z1,"Lužice, zdravotní středisko",48.831648,17.067085,"912",0,U19118N321,2
U19117Z1,"Lužice, u školy",48.837406,17.06961,"912",0,U19117N320,2
U19115Z1,"Lužice, obchodní dům",48.841704,17.073242,"912",0,U19115N319,2
U19116Z1,"Lužice, rozcestí",48.844645,17.082653,"912",0,U19116N318,2
U19006Z1,"Hodonín, Kapřiska, rybníky",48.848283,17.091655,"900",0,U19006N317,2
U19005Z1,"Hodonín, Kapřiska",48.852443,17.105602,"900",0,U19005N316,2
U19013Z1,"Hodonín, u podjezdu",48.850992,17.113628,"900",0,U19013N315,2
U16350Z2,"Klobouky u Brna, škola",48.997172,16.86575,"640",0,U16350N314,2
U16345Z5,"Klobouky u Brna, náměstí",48.995257,16.857507,"640",0,U16345N155,2
U16346Z1,"Klobouky u Brna, ropovod",48.983635,16.862805,"640",0,U16346N344,2
U16349Z1,"Klobouky u Brna, samota",48.97557,16.862025,"640",0,U16349N345,2
U16355Z1,"Morkůvky, obecní úřad",48.966503,16.863128,"650",0,U16355N346,2
U16453Z1,"Brumovice, škola",48.962895,16.896293,"650",0,U16453N347,2
U16452Z1,"Brumovice, obecní úřad",48.95909,16.896238,"650",0,U16452N348,2
U16454Z1,"Brumovice, železniční stanice",48.947167,16.905878,"650",0,U16454N349,2
U15539Z1,"Kobylí, statek",48.942318,16.897075,"650",0,U15539N350,2
U15538Z1,"Kobylí",48.931883,16.884127,"650",0,U15538N351,2
U15540Z1,"Kobylí, škola",48.928757,16.886635,"650",0,U15540N352,2
U15541Z1,"Vrbice, Jednota",48.916225,16.895935,"650",0,U15541N353,2
U15542Z1,"Vrbice, obecní úřad",48.912783,16.891812,"650",0,U15542N354,2
U15512Z1,"Bořetice, u Floriánka",48.910757,16.858672,"555",0,U15512N355,2
U15511Z1,"Bořetice",48.91189,16.854014,"555",0,U15511N356,2
U15513Z1,"Bořetice, železniční stanice",48.916475,16.852765,"555",0,U15513N357,2
U15517Z1,"Němčičky, u mlýna",48.933338,16.834867,"555",0,U15517N358,2
U15518Z1,"Němčičky, ZD",48.93583,16.830667,"555",0,U15518N359,2
U15515Z1,"Němčičky, střed",48.934927,16.821875,"555",0,U15515N360,2
U15516Z1,"Němčičky, transformátor",48.9334,16.818862,"555",0,U15516N361,2
U15514Z1,"Němčičky, rozcestí",48.936578,16.816049,"555",0,U15514N362,2
U15531Z1,"Velké Pavlovice, obchodní středisko",48.902075,16.818153,"555",0,U15531N363,2
U15528Z51,"Velké Pavlovice, autobusové nádraží",48.897843,16.81716,"555",0,U15528N364,2
U15528Z4,"Velké Pavlovice, autobusové nádraží",48.897775,16.816563,"555",0,U15528N364,2
U15531Z2,"Velké Pavlovice, obchodní středisko",48.902305,16.818257,"555",0,U15531N363,2
U15514Z2,"Němčičky, rozcestí",48.936416,16.816057,"555",0,U15514N362,2
U15516Z2,"Němčičky, transformátor",48.933387,16.818782,"555",0,U15516N361,2
U15515Z2,"Němčičky, střed",48.934855,16.821845,"555",0,U15515N360,2
U15518Z2,"Němčičky, ZD",48.935728,16.83044,"555",0,U15518N359,2
U15517Z2,"Němčičky, u mlýna",48.933338,16.834867,"555",0,U15517N358,2
U15513Z2,"Bořetice, železniční stanice",48.916388,16.852805,"555",0,U15513N357,2
U15511Z2,"Bořetice",48.91189,16.854014,"555",0,U15511N356,2
U15512Z2,"Bořetice, u Floriánka",48.910652,16.858853,"555",0,U15512N355,2
U15542Z2,"Vrbice, obecní úřad",48.912732,16.892077,"650",0,U15542N354,2
U15541Z2,"Vrbice, Jednota",48.916145,16.896068,"650",0,U15541N353,2
U15540Z2,"Kobylí, škola",48.928805,16.88645,"650",0,U15540N352,2
U15538Z2,"Kobylí",48.932237,16.884008,"650",0,U15538N351,2
U15539Z2,"Kobylí, statek",48.942318,16.897075,"650",0,U15539N350,2
U16454Z2,"Brumovice, železniční stanice",48.947167,16.905878,"650",0,U16454N349,2
U16452Z2,"Brumovice, obecní úřad",48.959287,16.896337,"650",0,U16452N348,2
U16453Z2,"Brumovice, škola",48.963013,16.896358,"650",0,U16453N347,2
U16355Z2,"Morkůvky, obecní úřad",48.966387,16.862801,"650",0,U16355N346,2
U16349Z2,"Klobouky u Brna, samota",48.97557,16.862062,"640",0,U16349N345,2
U16346Z2,"Klobouky u Brna, ropovod",48.983575,16.862818,"640",0,U16346N344,2
U16351Z2,"Klobouky u Brna, Wurmova",48.993705,16.863788,"640",0,U16351N365,2
U16345Z3,"Klobouky u Brna, náměstí",48.995257,16.857507,"640",0,U16345N155,2
U19001Z12,"Hodonín, autobusové nádraží",48.854082,17.121333,"900",0,U19001N140,2
U19011Z1,"Hodonín, restaurace Morava",48.855525,17.133732,"900",0,U19011N139,2
U19007Z1,"Hodonín, lázně",48.862895,17.140778,"900",0,U19007N138,2
U19004Z1,"Hodonín, Černý most",48.866438,17.142225,"900",0,U19004N137,2
U19003Z1,"Hodonín, cihelna",48.872317,17.146772,"900",0,U19003N136,2
U19009Z1,"Hodonín, Pánov",48.882762,17.147507,"900",0,U19009N135,2
U19159Z1,"Ratíškovice, U Hájenky",48.915145,17.160483,"917",0,U19159N134,2
U19154Z1,"Ratíškovice",48.92089,17.16175,"917",0,U19154N133,2
U19160Z1,"Ratíškovice, u Svatého Jána",48.923624,17.168384,"917",0,U19160N132,2
U19155Z1,"Ratíškovice, drůbežárna",48.931355,17.168897,"917",0,U19155N131,2
U19162Z1,"Vacenovice, stadion",48.93928,17.17065,"917",0,U19162N130,2
U19161Z3,"Vacenovice",48.945423,17.174122,"917",0,U19161N129,2
U16804Z1,"Milotice, škola",48.954322,17.152017,"685",0,U16804N128,2
U16802Z1,"Milotice, náves",48.954794,17.142376,"685",0,U16802N127,2
U16801Z1,"Milotice, dvůr",48.965408,17.140677,"685",0,U16801N126,2
U16805Z1,"Skoronice",48.981563,17.153897,"685",0,U16805N125,2
U16819Z1,"Vlkoš, škola",48.985473,17.15926,"685",0,U16819N124,2
U16608Z17,"Kyjov, aut. st.",49.006463,17.124008,"675",0,U16608N99,2
U16613Z1,"Kyjov, pod nemocnicí",49.007868,17.114425,"675",0,U16613N366,2
U16650Z1,"Kyjov, železniční stanice",49.015685,17.122964,"675",0,U16650N367,2
U19001Z16,"Hodonín, autobusové nádraží",48.854137,17.121217,"900",0,U19001N140,2
U19149Z2,"Dubňany, škola",48.910813,17.100845,"917",0,U19149N368,2
U19151Z1,"Dubňany, u mlýna",48.915073,17.09902,"917",0,U19151N369,2
U19147Z2,"Dubňany, pivnice",48.916573,17.09714,"917",0,U19147N370,2
U19143Z2,"Dubňany, kaplička",48.916199,17.089519,"917",0,U19143N371,2
U19150Z1,"Dubňany, školka",48.9171,17.093743,"917",0,U19150N372,2
U19141Z1,"Dubňany, Horní Huť",48.926363,17.08807,"917",0,U19141N373,2
U19145Z1,"Dubňany, náměstí",48.920078,17.102671,"917",0,U19145N374,2
U19144Z1,"Dubňany, kostel",48.922723,17.108403,"917",0,U19144N375,2
U19144Z2,"Dubňany, kostel",48.9231,17.107234,"917",0,U19144N375,2
U19145Z2,"Dubňany, náměstí",48.920289,17.102765,"917",0,U19145N374,2
U19150Z2,"Dubňany, školka",48.917078,17.093072,"917",0,U19150N372,2
U19143Z1,"Dubňany, kaplička",48.916155,17.08939,"917",0,U19143N371,2
U19147Z1,"Dubňany, pivnice",48.916235,17.095502,"917",0,U19147N370,2
U19151Z2,"Dubňany, u mlýna",48.915052,17.09891,"917",0,U19151N369,2
U19149Z1,"Dubňany, škola",48.911238,17.100547,"917",0,U19149N368,2
U16813Z1,"Šardice",48.963971,17.028606,"685",0,U16813N376,2
U16552Z1,"Hovorany, důl",48.956725,17.010222,"660",0,U16552N377,2
U16553Z1,"Hovorany, kostel",48.954818,16.998017,"660",0,U16553N378,2
U16555Z1,"Hovorany, škola",48.953233,16.983643,"660",0,U16555N379,2
U16556Z1,"Hovorany, zdravotní středisko",48.949956,16.981331,"660",0,U16556N380,2
U16545Z3,"Čejč, náměstí",48.946403,16.965978,"660",0,U16545N148,2
U19001Z5,"Hodonín, autobusové nádraží",48.854205,17.121972,"900",0,U19001N140,2
U19008Z1,"Hodonín, nemocnice - lázně",48.86294,17.146567,"900",0,U19008N381,2
U19014Z1,"Hodonín, vodárna",48.867785,17.164752,"900",0,U19014N382,2
U19137Z1,"Rohatec, Smíchov",48.875215,17.178225,"915",0,U19137N383,2
U19139Z1,"Rohatec, u školy",48.872619,17.176008,"915",0,U19139N384,2
U19136Z1,"Rohatec, náměstí",48.880303,17.1817,"915",0,U19136N385,2
U19135Z1,"Rohatec, na kopci",48.887452,17.189605,"915",0,U19135N386,2
U19133Z1,"Rohatec, Kolonie, Maryša",48.888563,17.207804,"915",0,U19133N387,2
U19138Z1,"Rohatec, Soboňky",48.895421,17.218332,"915",0,U19138N388,2
U19138Z2,"Rohatec, Soboňky",48.895421,17.218332,"915",0,U19138N388,2
U19133Z2,"Rohatec, Kolonie, Maryša",48.888563,17.207804,"915",0,U19133N387,2
U19135Z2,"Rohatec, na kopci",48.887555,17.189458,"915",0,U19135N386,2
U19136Z2,"Rohatec, náměstí",48.880216,17.181427,"915",0,U19136N385,2
U19137Z2,"Rohatec, Smíchov",48.875023,17.177865,"915",0,U19137N383,2
U19014Z2,"Hodonín, vodárna",48.867785,17.164752,"900",0,U19014N382,2
U19008Z2,"Hodonín, nemocnice - lázně",48.862717,17.145687,"900",0,U19008N381,2
U19156Z1,"Ratíškovice, rozcestí Tomáš",48.927849,17.158381,"917",0,U19156N389,2
U16800Z1,"Milotice, drůbežárna",48.97231,17.133374,"685",0,U16800N390,2
U16611Z1,"Kyjov, letiště",48.982633,17.129503,"675",0,U16611N391,2
U16614Z1,"Kyjov, sklárna",49.00453,17.129338,"675",0,U16614N392,2
U16614Z2,"Kyjov, sklárna",49.00344,17.129063,"675",0,U16614N392,2
U16611Z2,"Kyjov, letiště",48.982633,17.129503,"675",0,U16611N391,2
U16800Z2,"Milotice, drůbežárna",48.97231,17.133374,"685",0,U16800N390,2
U19156Z2,"Ratíškovice, rozcestí Tomáš",48.927729,17.158287,"917",0,U19156N389,2
U16545Z4,"Čejč, náměstí",48.94568,16.967358,"660",0,U16545N148,2
U16556Z2,"Hovorany, zdravotní středisko",48.949749,16.981078,"660",0,U16556N380,2
U16555Z2,"Hovorany, škola",48.953908,16.984808,"660",0,U16555N379,2
U16553Z2,"Hovorany, kostel",48.954573,16.99834,"660",0,U16553N378,2
U16552Z2,"Hovorany, důl",48.956683,17.010608,"660",0,U16552N377,2
U16813Z2,"Šardice",48.964017,17.028398,"685",0,U16813N376,2
U15714Z20,"Mikulov, železniční stanice",48.801587,16.626658,"571",0,U15714N35,2
U15801Z10,"Valtice, aut. st.",48.742578,16.755349,"582",0,U15801N81,2
U15742Z2,"Břeclav, Poštorná, kostel",48.752792,16.867202,"575",0,U15742N393,2
U15729Z15,"Břeclav, autobusové nádraží",48.753851,16.893169,"575",0,U15729N338,2
U15729Z31,"Břeclav, autobusové nádraží",48.755026,16.893544,"575",0,U15729N338,2
U15742Z1,"Břeclav, Poštorná, kostel",48.752872,16.867193,"575",0,U15742N393,2
U15801Z11,"Valtice, aut. st.",48.742835,16.755635,"582",0,U15801N81,2
U15641Z1,"Březí",48.821397,16.563187,"561",0,U15641N394,2
U15642Z1,"Dobré Pole",48.825967,16.535573,"561",0,U15642N395,2
U15563Z21,"Novosedly, železniční stanice",48.825954,16.493781,"551",0,U15563N396,2
U15563Z20,"Novosedly, železniční stanice",48.825954,16.493781,"551",0,U15563N396,2
U15642Z2,"Dobré Pole",48.825967,16.535573,"561",0,U15642N395,2
U15641Z2,"Březí",48.821337,16.563325,"561",0,U15641N394,2
U19205Z20,"Strážnice, aut. st.",48.897754,17.318515,"925",0,U19205N181,2
U29303Z21,"Vnorovy",48.930032,17.349458,"935",0,U29303N397,2
U19315Z1,"Veselí nad Moravou, Zarazice, Crhounkova",48.938308,17.36147,"935",0,U19315N398,2
U19316Z41,"Veselí nad Moravou, železniční stanice",48.949155,17.381792,"935",0,U19316N399,2
U19316Z40,"Veselí nad Moravou, železniční stanice",48.949235,17.382003,"935",0,U19316N399,2
U19315Z2,"Veselí nad Moravou, Zarazice, Crhounkova",48.938258,17.361175,"935",0,U19315N398,2
U29303Z20,"Vnorovy",48.929723,17.348913,"935",0,U29303N397,2
U19205Z21,"Strážnice, aut. st.",48.897754,17.318515,"925",0,U19205N181,2
U1146Z98,"Hlavní nádraží",49.19035,16.612342,"100",0,U1146N400,2
U1183Z11,"Chrlice, nádraží",49.132031,16.657232,"101",0,U1183N401,2
U16149Z11,"Sokolnice, železniční stanice",49.108029,16.733459,"610",0,U16149N402,2
U26101Z2,"Újezd u Brna",49.107297,16.745564,"610",0,U26101N403,2
U26102Z2,"Hostěrádky-Rešov",49.119722,16.7825,"610",0,U26102N404,2
U26201Z2,"Zbýšov",49.132222,16.806111,"620",0,U26201N405,2
U16212Z11,"Křenovice, hor. žel. st.",49.143553,16.824564,"620",0,U16212N406,2
U12736Z51,"Letovice, železniční stanice",49.559167,16.569722,"275",0,U12736N407,2
U22702Z2,"Letovice zastávka",49.534833,16.5775,"275",0,U22702N408,2
U22701Z2,"Zboněk",49.520556,16.584194,"275",0,U22701N409,2
U22602Z2,"Svitávka",49.500067,16.5975,"265",0,U22602N410,2
U12676Z51,"Skalice nad Svitavou, žel.st.",49.480833,16.608333,"265",0,U12676N411,2
U12511Z51,"Doubravice nad Svitavou, žel.st.",49.440833,16.620833,"255",0,U12511N412,2
U12439Z51,"Rájec-Jestřebí, železniční stanice",49.408206,16.627711,"245",0,U12439N413,2
U22301Z2,"Dolní Lhota",49.386917,16.633978,"235",0,U22301N414,2
U22302Z2,"Blansko město",49.361389,16.638889,"235",0,U22302N415,2
U12342Z29,"Blansko, aut. st.",49.354167,16.644444,"235",0,U12342N416,2
U12231Z11,"Adamov, železniční zastávka",49.302083,16.6475,"225",0,U12231N417,2
U12230Z11,"Adamov, železniční stanice",49.295556,16.6625,"225",0,U12230N418,2
U22101Z2,"Babice nad Svitavou",49.275556,16.670833,"215",0,U22101N419,2
U12158Z11,"Bílovice nad Svitavou, žel. stanice",49.242778,16.673611,"215",0,U12158N420,2
U1809Z11,"Židenice, nádraží",49.204282,16.636042,"100",0,U1809N421,2
U12936Z11,"Březová nad Svitavou, železniční stanice",49.634667,16.519083,"295",0,U12936N422,2
U12804Z11,"Brněnec, Mor.Chrastová, žel.st.",49.621111,16.525278,"285",0,U12804N423,2
U12819Z11,"Rozhraní, železniční zastávka",49.604722,16.530833,"285",0,U12819N424,2
U16149Z10,"Sokolnice, železniční stanice",49.108029,16.733459,"610",0,U16149N402,2
U1183Z10,"Chrlice, nádraží",49.132031,16.657232,"101",0,U1183N401,2
U1146Z99,"Hlavní nádraží",49.19035,16.612342,"100",0,U1146N400,2
U1809Z10,"Židenice, nádraží",49.204282,16.636042,"100",0,U1809N421,2
U12158Z10,"Bílovice nad Svitavou, žel. stanice",49.242778,16.673611,"215",0,U12158N420,2
U22101Z1,"Babice nad Svitavou",49.275556,16.670833,"215",0,U22101N419,2
U12230Z10,"Adamov, železniční stanice",49.295556,16.6625,"225",0,U12230N418,2
U12231Z10,"Adamov, železniční zastávka",49.302083,16.6475,"225",0,U12231N417,2
U12342Z30,"Blansko, aut. st.",49.354167,16.644444,"235",0,U12342N416,2
U22302Z1,"Blansko město",49.361389,16.638889,"235",0,U22302N415,2
U22301Z1,"Dolní Lhota",49.386917,16.633978,"235",0,U22301N414,2
U12439Z50,"Rájec-Jestřebí, železniční stanice",49.408206,16.627711,"245",0,U12439N413,2
U12511Z50,"Doubravice nad Svitavou, žel.st.",49.440833,16.620833,"255",0,U12511N412,2
U12676Z50,"Skalice nad Svitavou, žel.st.",49.480833,16.608333,"265",0,U12676N411,2
U22602Z1,"Svitávka",49.500067,16.5975,"265",0,U22602N410,2
U22701Z1,"Zboněk",49.520556,16.584194,"275",0,U22701N409,2
U22702Z1,"Letovice zastávka",49.534833,16.5775,"275",0,U22702N408,2
U12736Z50,"Letovice, železniční stanice",49.559167,16.569722,"275",0,U12736N407,2
U16212Z10,"Křenovice, hor. žel. st.",49.143553,16.824564,"620",0,U16212N406,2
U26201Z1,"Zbýšov",49.132222,16.806111,"620",0,U26201N405,2
U26102Z1,"Hostěrádky-Rešov",49.119722,16.7825,"610",0,U26102N404,2
U26101Z1,"Újezd u Brna",49.107297,16.745564,"610",0,U26101N403,2
U12819Z10,"Rozhraní, železniční zastávka",49.604722,16.530833,"285",0,U12819N424,2
U12804Z10,"Brněnec, Mor.Chrastová, žel.st.",49.621111,16.525278,"285",0,U12804N423,2
U12936Z10,"Březová nad Svitavou, železniční stanice",49.634667,16.519083,"295",0,U12936N422,2
U17342Z11,"Rousínov, žel. st.",49.196667,16.867139,"730",0,U17342N425,2
U27301Z2,"Luleč",49.248056,16.921667,"730",0,U27301N426,2
U17446Z11,"Vyškov, železniční stanice",49.277222,16.990833,"740",0,U17446N222,2
U12635Z50,"Boskovice, aut.st.",49.491667,16.651778,"265",0,U12635N427,2
U12635Z51,"Boskovice, aut.st.",49.491667,16.651778,"265",0,U12635N427,2
U22902Z2,"Velké Opatovice",49.611111,16.690833,"290",0,U22902N428,2
U12812Z11,"Cetkovice, žel.st.",49.588069,16.70469,"280",0,U12812N429,2
U12750Z11,"Šebetov, u pily",49.554214,16.699168,"275",0,U12750N430,2
U12711Z12,"Knínice, U Nádraží",49.534472,16.689444,"275",0,U12711N431,2
U12711Z11,"Knínice, U Nádraží",49.534472,16.689444,"275",0,U12711N431,2
U12750Z10,"Šebetov, u pily",49.554214,16.699168,"275",0,U12750N430,2
U12812Z10,"Cetkovice, žel.st.",49.588069,16.70469,"280",0,U12812N429,2
U22902Z1,"Velké Opatovice",49.611111,16.690833,"290",0,U22902N428,2
U13334Z21,"Tišnov, železniční stanice",49.3475,16.41725,"330",0,U13334N432,2
U1286Z11,"Královo Pole, nádraží",49.23105,16.596651,"101",0,U1286N433,2
U13143Z11,"Kuřim, železniční stanice",49.301,16.534523,"310",0,U13143N434,2
U1286Z10,"Královo Pole, nádraží",49.23105,16.596651,"101",0,U1286N433,2
U13143Z10,"Kuřim, železniční stanice",49.301,16.534523,"310",0,U13143N434,2
U13334Z20,"Tišnov, železniční stanice",49.3475,16.41725,"330",0,U13334N432,2
U14507Z51,"Náměšť nad Oslavou, autobusové nádraží",49.207007,16.14766,"456",0,U14507N435,2
U14507Z52,"Náměšť nad Oslavou, autobusové nádraží",49.207007,16.14766,"456",0,U14507N435,2
U16333Z11,"Slavkov u Brna, žel. st.",49.14495,16.873475,"635",0,U16333N261,2
U16463Z51,"Bučovice, železniční stanice",49.145619,16.999658,"645",0,U16463N436,2
U16509Z11,"Nesovice, železniční stanice",49.149167,17.081111,"655",0,U16509N437,2
U16650Z51,"Kyjov, železniční stanice",49.013889,17.120833,"675",0,U16650N367,2
U26802Z11,"Vracov",48.976457,17.221155,"685",0,U26802N438,2
U16908Z11,"Bzenec, železniční stanice",48.9694,17.262397,"695",0,U16908N439,2
U19316Z13,"Veselí nad Moravou, železniční stanice",48.948694,17.382439,"935",0,U19316N399,2
U16503Z11,"Nemotice, železniční stanice",49.133056,17.115,"655",0,U16503N440,2
U26603Z2,"Kyjov zastávka",49.003117,17.124022,"675",0,U26603N441,2
U26801Z11,"Vlkoš",48.987806,17.163569,"685",0,U26801N442,2
U19316Z12,"Veselí nad Moravou, železniční stanice",48.948694,17.382439,"935",0,U19316N399,2
U16908Z10,"Bzenec, železniční stanice",48.9694,17.262397,"695",0,U16908N439,2
U26802Z10,"Vracov",48.976457,17.221155,"685",0,U26802N438,2
U26603Z1,"Kyjov zastávka",49.003117,17.124022,"675",0,U26603N441,2
U16650Z50,"Kyjov, železniční stanice",49.013889,17.120833,"675",0,U16650N367,2
U16503Z10,"Nemotice, železniční stanice",49.133056,17.115,"655",0,U16503N440,2
U16509Z10,"Nesovice, železniční stanice",49.149167,17.081111,"655",0,U16509N437,2
U16463Z50,"Bučovice, železniční stanice",49.145619,16.999658,"645",0,U16463N436,2
U16333Z10,"Slavkov u Brna, žel. st.",49.14495,16.873475,"635",0,U16333N261,2
U26801Z10,"Vlkoš",48.987806,17.163569,"685",0,U26801N442,2
U16604Z10,"Kyjov, Bohuslavice, železniční stanice",49.055833,17.118917,"675",0,U16604N443,2
U26601Z1,"Jestřabice",49.088889,17.113333,"665",0,U26601N444,2
U16628Z10,"Brankovice, železniční stanice",49.150361,17.13375,"655",0,U16628N445,2
U1573Z10,"Slatina, nádraží",49.169478,16.682148,"101",0,U1573N446,2
U11001Z1,"Brno - Černovice",49.188984,16.631233,"100",0,U11001N447,2
U27501Z2,"Hoštice-Heroltice",49.291389,17.057778,"750",0,U27501N448,2
U17514Z21,"Ivanovice na Hané, aut. st.",49.306111,17.086944,"750",0,U17514N449,2
U27502Z2,"Chvalkovice na Hané",49.321667,17.111389,"750",0,U27502N450,2
U27503Z2,"Nezamyslice",49.336,17.1625,"765",0,U27503N451,2
U27503Z1,"Nezamyslice",49.336,17.1625,"765",0,U27503N451,2
U27502Z1,"Chvalkovice na Hané",49.321667,17.111389,"750",0,U27502N450,2
U17514Z20,"Ivanovice na Hané, aut. st.",49.306111,17.086944,"750",0,U17514N449,2
U27501Z1,"Hoštice-Heroltice",49.291389,17.057778,"750",0,U27501N448,2
U17446Z10,"Vyškov, železniční stanice",49.277222,16.990833,"740",0,U17446N222,2
U15637Z10,"Hrušovany nad Jevišovkou, žel. st.",48.810029,16.383137,"560",0,U15637N6,2
U18208Z10,"Božice, železniční stanice",48.823282,16.287832,"820",0,U18208N452,2
U28101Z10,"Hodonice",48.841514,16.164403,"810",0,U28101N453,2
U28102Z10,"Dyje",48.850047,16.1205,"810",0,U28102N454,2
U18009Z20,"Znojmo, autobusové nádraží",48.852761,16.059287,"800",0,U18009N269,2
U15563Z10,"Novosedly, železniční stanice",48.825719,16.49405,"551",0,U15563N396,2
U25505Z10,"Jevišovka",48.820272,16.467125,"551",0,U25505N455,2
U15637Z11,"Hrušovany nad Jevišovkou, žel. st.",48.810029,16.383137,"560",0,U15637N6,2
U25505Z11,"Jevišovka",48.820272,16.467125,"551",0,U25505N455,2
U15563Z11,"Novosedly, železniční stanice",48.825719,16.49405,"551",0,U15563N396,2
U18009Z21,"Znojmo, autobusové nádraží",48.852761,16.059287,"800",0,U18009N269,2
U28102Z11,"Dyje",48.850047,16.1205,"810",0,U28102N454,2
U28101Z11,"Hodonice",48.841514,16.164403,"810",0,U28101N453,2
U18208Z11,"Božice, železniční stanice",48.823282,16.287832,"820",0,U18208N452,2
U15729Z10,"Břeclav, autobusové nádraží",48.753851,16.893169,"575",0,U15729N338,2
U15609Z10,"Ladná, železniční stanice",48.813095,16.880976,"565",0,U15609N456,2
U15619Z10,"Podivín, železniční stanice",48.837775,16.853671,"565",0,U15619N457,2
U25501Z10,"Rakvice",48.85979,16.81992,"555",0,U25501N458,2
U15537Z10,"Zaječí, železniční stanice",48.889637,16.781831,"555",0,U15537N459,2
U15425Z10,"Šakvice, železniční stanice",48.912883,16.70557,"545",0,U15425N460,2
U15425Z13,"Šakvice, železniční stanice",48.912883,16.70557,"545",0,U15425N460,2
U15403Z11,"Hustopeče, autobusové nádraží",48.93752,16.735901,"545",0,U15403N461,2
U15222Z10,"Hrušovany u Brna, žel. st.",49.034228,16.591501,"525",0,U15222N462,2
U25201Z10,"Vojkovice nad Svratkou, žel. st.",49.056208,16.597445,"525",0,U25201N463,2
U15181Z10,"Rajhrad, železniční stanice",49.084966,16.60532,"510",0,U15181N92,2
U15135Z10,"Popovice, u tratě",49.103463,16.605647,"510",0,U15135N464,2
U15140Z10,"Modřice, železniční stanice",49.133256,16.606209,"510",0,U15140N465,2
U15307Z10,"Vranovice, žel.st.",48.964528,16.604187,"535",0,U15307N466,2
U15306Z10,"Žabčice, žel. st.",49.010278,16.594722,"535",0,U15306N467,2
U1331Z10,"Lesná, nádraží",49.220432,16.627504,"101",0,U1331N468,2
U1557Z10,"Řečkovice, nádraží",49.250794,16.590446,"101",0,U1557N469,2
U13109Z10,"Česká, železniční stanice",49.284546,16.566731,"310",0,U13109N470,2
U13206Z10,"Čebín, železniční stanice",49.319722,16.465278,"320",0,U13206N471,2
U13306Z10,"Hradčany, železniční stanice",49.333603,16.438056,"330",0,U13306N472,2
U11002Z10,"Brno - Horní Heršpice",49.167404,16.606859,"101",0,U11002N473,2
U25402Z10,"Popice",48.924332,16.668084,"545",0,U25402N474,2
U25401Z10,"Pouzdřany",48.942025,16.630527,"545",0,U25401N475,2
U13306Z11,"Hradčany, železniční stanice",49.333603,16.438056,"330",0,U13306N472,2
U13206Z11,"Čebín, železniční stanice",49.319722,16.465278,"320",0,U13206N471,2
U13109Z11,"Česká, železniční stanice",49.284546,16.566731,"310",0,U13109N470,2
U1557Z11,"Řečkovice, nádraží",49.250794,16.590446,"101",0,U1557N469,2
U1331Z11,"Lesná, nádraží",49.220432,16.627504,"101",0,U1331N468,2
U15140Z11,"Modřice, železniční stanice",49.133256,16.606209,"510",0,U15140N465,2
U15135Z11,"Popovice, u tratě",49.103463,16.605647,"510",0,U15135N464,2
U15181Z11,"Rajhrad, železniční stanice",49.084966,16.60532,"510",0,U15181N92,2
U25201Z11,"Vojkovice nad Svratkou, žel. st.",49.056208,16.597445,"525",0,U25201N463,2
U15222Z11,"Hrušovany u Brna, žel. st.",49.034228,16.591501,"525",0,U15222N462,2
U15306Z11,"Žabčice, žel. st.",49.010278,16.594722,"535",0,U15306N467,2
U15307Z11,"Vranovice, žel.st.",48.964528,16.604187,"535",0,U15307N466,2
U13411Z10,"Dolní Loučky, železniční stanice",49.356389,16.346944,"340",0,U13411N476,2
U13425Z10,"Řikonín, železniční stanice",49.365833,16.305833,"340",0,U13425N477,2
U13454Z10,"Níhov, železniční stanice",49.335275,16.269007,"345",0,U13454N478,2
U13454Z11,"Níhov, železniční stanice",49.335275,16.269007,"345",0,U13454N478,2
U13425Z11,"Řikonín, železniční stanice",49.365833,16.305833,"340",0,U13425N477,2
U13411Z11,"Dolní Loučky, železniční stanice",49.356389,16.346944,"340",0,U13411N476,2
U11002Z11,"Brno - Horní Heršpice",49.167404,16.606859,"101",0,U11002N473,2
U25401Z11,"Pouzdřany",48.942025,16.630527,"545",0,U25401N475,2
U25402Z11,"Popice",48.924332,16.668084,"545",0,U25402N474,2
U15425Z11,"Šakvice, železniční stanice",48.912883,16.70557,"545",0,U15425N460,2
U15537Z11,"Zaječí, železniční stanice",48.889637,16.781831,"555",0,U15537N459,2
U25501Z11,"Rakvice",48.85979,16.81992,"555",0,U25501N458,2
U15619Z11,"Podivín, železniční stanice",48.837775,16.853671,"565",0,U15619N457,2
U15609Z11,"Ladná, železniční stanice",48.813095,16.880976,"565",0,U15609N456,2
U15729Z11,"Břeclav, autobusové nádraží",48.753851,16.893169,"575",0,U15729N338,2
U13701Z12,"Bystřice nad Pern., železniční stanice",49.513611,16.246667,"370",0,U13701N479,2
U13801Z12,"Rozsochy, železniční stanice",49.537385,16.195122,"380",0,U13801N480,2
U23801Z2,"Rovné-Divišov",49.547632,16.172826,"380",0,U23801N481,2
U13520Z2,"Nedvědice, železniční stanice",49.454167,16.338333,"350",0,U13520N482,2
U13506Z11,"Doubravník, železniční stanice",49.426944,16.352389,"350",0,U13506N483,2
U13464Z2,"Prudká zastávka",49.419194,16.367361,"340",0,U13464N484,2
U13463Z2,"Borač, žel. st.",49.400144,16.366389,"340",0,U13463N485,2
U13462Z2,"Štěpánovice",49.374444,16.388056,"340",0,U13462N486,2
U13462Z1,"Štěpánovice",49.374444,16.388056,"340",0,U13462N486,2
U13463Z1,"Borač, žel. st.",49.400144,16.366389,"340",0,U13463N485,2
U13464Z1,"Prudká zastávka",49.419194,16.367361,"340",0,U13464N484,2
U13506Z10,"Doubravník, železniční stanice",49.426944,16.352389,"350",0,U13506N483,2
U13520Z1,"Nedvědice, železniční stanice",49.454167,16.338333,"350",0,U13520N482,2
U23601Z2,"Věžná",49.451547,16.270316,"360",0,U23601N487,2
U13605Z12,"Rožná, železniční stanice",49.472143,16.245416,"360",0,U13605N488,2
U23801Z1,"Rovné-Divišov",49.547632,16.172826,"380",0,U23801N481,2
U13801Z11,"Rozsochy, železniční stanice",49.537385,16.195122,"380",0,U13801N480,2
U13701Z11,"Bystřice nad Pern., železniční stanice",49.513611,16.246667,"370",0,U13701N479,2
U13605Z11,"Rožná, železniční stanice",49.472143,16.245416,"360",0,U13605N488,2
U23601Z1,"Věžná",49.451547,16.270316,"360",0,U23601N487,2
U15403Z10,"Hustopeče, autobusové nádraží",48.93752,16.735901,"545",0,U15403N461,2
U15425Z12,"Šakvice, železniční stanice",48.912883,16.70557,"545",0,U15425N460,2
U16546Z10,"Čejč, železniční stanice",48.942189,16.958672,"660",0,U16546N489,2
U16454Z10,"Brumovice, železniční stanice",48.947228,16.905767,"650",0,U16454N349,2
U25504Z10,"Kobylí na Moravě",48.934022,16.881272,"650",0,U25504N490,2
U15513Z10,"Bořetice, železniční stanice",48.916314,16.850139,"555",0,U15513N357,2
U25503Z10,"Velké Pavlovice zastávka",48.901672,16.8224,"555",0,U25503N491,2
U25502Z10,"Velké Pavlovice",48.88985,16.823672,"555",0,U25502N492,2
U15537Z12,"Zaječí, železniční stanice",48.889637,16.781831,"555",0,U15537N459,2
U19001Z23,"Hodonín, autobusové nádraží",48.85575,17.12069,"900",0,U19001N140,2
U29106Z10,"Mutěnice",48.904678,17.039875,"910",0,U29106N493,2
U29105Z10,"Mutěnice zastávka",48.911986,17.027008,"910",0,U29105N494,2
U15537Z13,"Zaječí, železniční stanice",48.889637,16.781831,"555",0,U15537N459,2
U25502Z11,"Velké Pavlovice",48.88985,16.823672,"555",0,U25502N492,2
U25503Z11,"Velké Pavlovice zastávka",48.901672,16.8224,"555",0,U25503N491,2
U15513Z11,"Bořetice, železniční stanice",48.916314,16.850139,"555",0,U15513N357,2
U25504Z11,"Kobylí na Moravě",48.934022,16.881272,"650",0,U25504N490,2
U16454Z11,"Brumovice, železniční stanice",48.947228,16.905767,"650",0,U16454N349,2
U16546Z11,"Čejč, železniční stanice",48.942189,16.958672,"660",0,U16546N489,2
U29105Z11,"Mutěnice zastávka",48.911986,17.027008,"910",0,U29105N494,2
U29106Z11,"Mutěnice",48.904678,17.039875,"910",0,U29106N493,2
U19001Z22,"Hodonín, autobusové nádraží",48.85575,17.12069,"900",0,U19001N140,2
U25802Z10,"Lanžhot",48.732948,16.962504,"585",0,U25802N495,2
U25802Z11,"Lanžhot",48.732948,16.962504,"585",0,U25802N495,2
U19001Z21,"Hodonín, autobusové nádraží",48.85575,17.12069,"900",0,U19001N140,2
U19302Z11,"Moravský Písek, Kolonie, žel. stanice",48.977513,17.314839,"695",0,U19302N496,2
U19001Z20,"Hodonín, autobusové nádraží",48.85575,17.12069,"900",0,U19001N140,2
U19302Z10,"Moravský Písek, Kolonie, žel. stanice",48.977513,17.314839,"695",0,U19302N496,2
U19129Z10,"Moravská Nová Ves, železniční stanice",48.799493,17.021674,"912",0,U19129N327,2
U19129Z11,"Moravská Nová Ves, železniční stanice",48.799493,17.021674,"912",0,U19129N327,2
U18009Z23,"Znojmo, autobusové nádraží",48.852761,16.059287,"800",0,U18009N269,2
U28001Z1,"Znojmo - Nový Šaldorf",48.820061,16.044266,"800",0,U28001N497,2
U18168Z11,"Šatov, železniční stanice",48.780786,16.026006,"817",0,U18168N498,2
U18168Z10,"Šatov, železniční stanice",48.780786,16.026006,"817",0,U18168N498,2
U28001Z2,"Znojmo - Nový Šaldorf",48.820061,16.044266,"800",0,U28001N497,2
U18009Z22,"Znojmo, autobusové nádraží",48.852761,16.059287,"800",0,U18009N269,2
U28002Z10,"Znojmo nemocnice",48.865504,16.048394,"800",0,U28002N499,2
U28103Z10,"Citonice",48.878906,15.977467,"815",0,U28103N500,2
U18158Z10,"Olbramkostel, železniční stanice",48.903229,15.949177,"815",0,U18158N501,2
U18259Z10,"Šumná, železniční stanice",48.923097,15.874306,"825",0,U18259N502,2
U18339Z10,"Grešlové Mýto, železniční stanice",48.98455,15.874436,"835",0,U18339N503,2
U28401Z10,"Blížkovice",49.004292,15.854364,"845",0,U28401N504,2
U28501Z10,"Vesce",49.019071,15.831277,"845",0,U28501N505,2
U28502Z10,"Moravské Budějovice",49.057522,15.809326,"855",0,U28502N506,2
U28502Z11,"Moravské Budějovice",49.057522,15.809326,"855",0,U28502N506,2
U28501Z11,"Vesce",49.019071,15.831277,"845",0,U28501N505,2
U28401Z11,"Blížkovice",49.004292,15.854364,"845",0,U28401N504,2
U18339Z11,"Grešlové Mýto, železniční stanice",48.98455,15.874436,"835",0,U18339N503,2
U18259Z11,"Šumná, železniční stanice",48.923097,15.874306,"825",0,U18259N502,2
U18158Z11,"Olbramkostel, železniční stanice",48.903229,15.949177,"815",0,U18158N501,2
U28103Z11,"Citonice",48.878906,15.977467,"815",0,U28103N500,2
U28002Z11,"Znojmo nemocnice",48.865504,16.048394,"800",0,U28002N499,2
U29301Z10,"Moravský Písek zastávka",48.991257,17.330117,"695",0,U29301N507,2
U16905Z10,"Bzenec, Přívoz, železniční stanice",48.935196,17.286642,"695",0,U16905N177,2
U29103Z10,"Rohatec",48.892515,17.197852,"915",0,U29103N508,2
U29102Z10,"Rohatec zastávka",48.88309,17.178111,"915",0,U29102N509,2
U19119Z10,"Lužice, železniční stanice",48.827619,17.061961,"912",0,U19119N322,2
U29101Z10,"Hrušky zastávka",48.787124,16.98157,"912",0,U29101N510,2
U29101Z11,"Hrušky zastávka",48.787124,16.98157,"912",0,U29101N510,2
U19119Z11,"Lužice, železniční stanice",48.827619,17.061961,"912",0,U19119N322,2
U29102Z11,"Rohatec zastávka",48.88309,17.178111,"915",0,U29102N509,2
U29103Z11,"Rohatec",48.892515,17.197852,"915",0,U29103N508,2
U16905Z11,"Bzenec, Přívoz, železniční stanice",48.935196,17.286642,"695",0,U16905N177,2
U29301Z11,"Moravský Písek zastávka",48.991257,17.330117,"695",0,U29301N507,2
U14242Z21,"Zastávka, železniční stanice",49.186667,16.360278,"425",0,U14242N511,2
U24301Z2,"Vysoké Popovice",49.178333,16.291111,"435",0,U24301N512,2
U14435Z11,"Rapotice, železniční stanice",49.184028,16.256111,"446",0,U14435N513,2
U24401Z2,"Kralice nad Oslavou",49.193333,16.204722,"446",0,U24401N514,2
U24101Z2,"Střelice",49.153889,16.483055,"410",0,U24101N515,2
U24102Z2,"Omice",49.160556,16.446944,"410",0,U24102N516,2
U14238Z11,"Tetčice, žel. st.",49.172323,16.408188,"425",0,U14238N517,2
U24201Z2,"Rosice u Brna",49.178889,16.383056,"425",0,U24201N518,2
U14110Z11,"Troubsko, U dráhy",49.163728,16.526078,"410",0,U14110N519,2
U24401Z1,"Kralice nad Oslavou",49.193333,16.204722,"446",0,U24401N514,2
U14435Z10,"Rapotice, železniční stanice",49.184028,16.256111,"446",0,U14435N513,2
U24301Z1,"Vysoké Popovice",49.178333,16.291111,"435",0,U24301N512,2
U14242Z20,"Zastávka, železniční stanice",49.186667,16.360278,"425",0,U14242N511,2
U24201Z1,"Rosice u Brna",49.178889,16.383056,"425",0,U24201N518,2
U14238Z10,"Tetčice, žel. st.",49.172323,16.408188,"425",0,U14238N517,2
U24102Z1,"Omice",49.160556,16.446944,"410",0,U24102N516,2
U24101Z1,"Střelice",49.153889,16.483055,"410",0,U24101N515,2
U14110Z10,"Troubsko, U dráhy",49.163728,16.526078,"410",0,U14110N519,2
U14119Z10,"Střelice, dolní železniční stanice",49.156944,16.508889,"410",0,U14119N520,2
U24501Z10,"Bohutice",48.987956,16.356025,"459",0,U24501N521,2
U14490Z10,"Moravský Krumlov, Rakšice, žel.st.",49.014428,16.34527,"448",0,U14490N522,2
U14479Z10,"Moravský Krumlov, železniční stanice",49.046389,16.338056,"448",0,U14479N523,2
U14350Z10,"Moravské Bránice, žel. st.",49.084611,16.428333,"437",0,U14350N524,2
U24203Z1,"Silůvky",49.108611,16.462778,"427",0,U24203N525,2
U14490Z11,"Moravský Krumlov, Rakšice, žel.st.",49.014428,16.34527,"448",0,U14490N522,2
U24501Z11,"Bohutice",48.987956,16.356025,"459",0,U24501N521,2
U24203Z2,"Silůvky",49.108611,16.462778,"427",0,U24203N525,2
U14350Z11,"Moravské Bránice, žel. st.",49.084611,16.428333,"437",0,U14350N524,2
U14479Z11,"Moravský Krumlov, železniční stanice",49.046389,16.338056,"448",0,U14479N523,2
U14119Z11,"Střelice, dolní železniční stanice",49.156944,16.508889,"410",0,U14119N520,2
U24202Z2,"Radostice",49.133611,16.461945,"427",0,U24202N526,2
U24402Z2,"Ivančice, letovisko",49.094167,16.40225,"447",0,U24402N527,2
U24403Z2,"Ivančice, město",49.099167,16.383722,"447",0,U24403N528,2
U14454Z11,"Ivančice, železniční stanice",49.098056,16.371389,"447",0,U14454N529,2
U14555Z11,"Miroslav, železniční stanice",48.93532,16.362297,"459",0,U14555N530,2
U25506Z11,"Dolenice",48.9122,16.367822,"550",0,U25506N531,2
U25507Z11,"Břežany",48.873106,16.367539,"550",0,U25507N532,2
U25603Z11,"Pravice",48.848689,16.370211,"560",0,U25603N533,2
U15637Z13,"Hrušovany nad Jevišovkou, žel. st.",48.810029,16.383137,"560",0,U15637N6,2
U14454Z10,"Ivančice, železniční stanice",49.098056,16.371389,"447",0,U14454N529,2
U24403Z1,"Ivančice, město",49.099167,16.383722,"447",0,U24403N528,2
U24402Z1,"Ivančice, letovisko",49.094167,16.40225,"447",0,U24402N527,2
U24202Z1,"Radostice",49.133611,16.461945,"427",0,U24202N526,2
U15637Z12,"Hrušovany nad Jevišovkou, žel. st.",48.810029,16.383137,"560",0,U15637N6,2
U25603Z10,"Pravice",48.848689,16.370211,"560",0,U25603N533,2
U25507Z10,"Břežany",48.873106,16.367539,"550",0,U25507N532,2
U25506Z10,"Dolenice",48.9122,16.367822,"550",0,U25506N531,2
U14555Z10,"Miroslav, železniční stanice",48.93532,16.362297,"459",0,U14555N530,2
U27301Z1,"Luleč",49.248056,16.921667,"730",0,U27301N426,2
U17342Z10,"Rousínov, žel. st.",49.196667,16.867139,"730",0,U17342N425,2
U16908Z13,"Bzenec, železniční stanice",48.9694,17.262397,"695",0,U16908N439,2
U26901Z11,"Bzenec - Olšovec",48.970217,17.293339,"695",0,U26901N534,2
U1573Z11,"Slatina, nádraží",49.169478,16.682148,"101",0,U1573N446,2
U16137Z11,"Šlapanice, železniční stanice",49.156654,16.729514,"610",0,U16137N535,2
U16121Z11,"Ponětovice, železniční stanice",49.154709,16.748578,"610",0,U16121N536,2
U26103Z2,"Blažovice",49.163735,16.798179,"610",0,U26103N537,2
U16211Z11,"Křenovice, dol. žel. st.",49.144328,16.834021,"620",0,U16211N538,2
U16318Z11,"Křižanovice, žel. st.",49.145011,16.934747,"635",0,U16318N539,2
U16406Z11,"Bučovice, Marefy, žel. st.",49.149167,16.973056,"645",0,U16406N540,2
U26501Z2,"Nevojice",49.136847,17.04775,"645",0,U26501N541,2
U16628Z11,"Brankovice, železniční stanice",49.150361,17.13375,"655",0,U16628N445,2
U19310Z12,"Veselí nad Moravou, Milokošť",48.966335,17.398435,"935",0,U19310N542,2
U26601Z2,"Jestřabice",49.088889,17.113333,"665",0,U26601N444,2
U16604Z11,"Kyjov, Bohuslavice, železniční stanice",49.055833,17.118917,"675",0,U16604N443,2
U19310Z11,"Veselí nad Moravou, Milokošť",48.966335,17.398435,"935",0,U19310N542,2
U26501Z1,"Nevojice",49.136847,17.04775,"645",0,U26501N541,2
U16406Z10,"Bučovice, Marefy, žel. st.",49.149167,16.973056,"645",0,U16406N540,2
U16318Z10,"Křižanovice, žel. st.",49.145011,16.934747,"635",0,U16318N539,2
U16211Z10,"Křenovice, dol. žel. st.",49.144328,16.834021,"620",0,U16211N538,2
U26103Z1,"Blažovice",49.163735,16.798179,"610",0,U26103N537,2
U16121Z10,"Ponětovice, železniční stanice",49.154709,16.748578,"610",0,U16121N536,2
U16137Z10,"Šlapanice, železniční stanice",49.156654,16.729514,"610",0,U16137N535,2
U19302Z12,"Moravský Písek, Kolonie, žel. stanice",48.977513,17.314839,"695",0,U19302N496,2
U26901Z10,"Bzenec - Olšovec",48.970217,17.293339,"695",0,U26901N534,2
U19205Z10,"Strážnice, aut. st.",48.897385,17.317688,"925",0,U19205N181,2
U29201Z10,"Petrov",48.878911,17.273703,"925",0,U29201N543,2
U29202Z10,"Sudoměřice nad Moravou",48.871653,17.243039,"925",0,U29202N544,2
U29104Z10,"Rohatec kolonie",48.892642,17.212111,"915",0,U29104N545,2
U29502Z10,"Javorník nad Veličkou zastávka",48.86,17.520833,"955",0,U29502N546,2
U19530Z10,"Velká nad Veličkou, železniční stanice",48.878631,17.51092,"955",0,U19530N547,2
U29401Z10,"Louka u Ostrohu",48.912234,17.484226,"945",0,U29401N548,2
U29402Z10,"Lipov",48.909806,17.457953,"945",0,U29402N549,2
U29403Z10,"Blatnice pod Sv. Antonínkem",48.941163,17.437706,"945",0,U29403N550,2
U19316Z10,"Veselí nad Moravou, železniční stanice",48.948694,17.382439,"935",0,U19316N399,2
U29501Z10,"Vrbovce",48.824439,17.516352,"965",0,U29501N551,2
U29602Z1,"Myjava",48.763641,17.570897,"975",0,U29602N552,2
U29601Z1,"Brestovec",48.786012,17.557593,"965",0,U29601N553,2
U29504Z1,"Vrbovce zastávka",48.804784,17.52869,"965",0,U29504N554,2
U19316Z11,"Veselí nad Moravou, železniční stanice",48.948694,17.382439,"935",0,U19316N399,2
U29402Z11,"Lipov",48.909806,17.457953,"945",0,U29402N549,2
U19530Z11,"Velká nad Veličkou, železniční stanice",48.878631,17.51092,"955",0,U19530N547,2
U29502Z11,"Javorník nad Veličkou zastávka",48.86,17.520833,"955",0,U29502N546,2
U29104Z11,"Rohatec kolonie",48.892642,17.212111,"915",0,U29104N545,2
U29202Z11,"Sudoměřice nad Moravou",48.871653,17.243039,"925",0,U29202N544,2
U29201Z11,"Petrov",48.878911,17.273703,"925",0,U29201N543,2
U19205Z11,"Strážnice, aut. st.",48.897385,17.317688,"925",0,U19205N181,2
U29501Z11,"Vrbovce",48.824439,17.516352,"965",0,U29501N551,2
U29504Z2,"Vrbovce zastávka",48.804784,17.52869,"965",0,U29504N554,2
U29601Z2,"Brestovec",48.786012,17.557593,"965",0,U29601N553,2
U29602Z2,"Myjava",48.763641,17.570897,"975",0,U29602N552,2
U29403Z11,"Blatnice pod Sv. Antonínkem",48.941163,17.437706,"945",0,U29403N550,2
U29401Z11,"Louka u Ostrohu",48.912234,17.484226,"945",0,U29401N548,2
U16101Z2,"Blažovice, hostinec",49.166001,16.786446,"610",0,U16101N555,2
U16102Z2,"Blažovice, pod kostelem",49.162842,16.783037,"610",0,U16102N556,2
U16104Z2,"Jiříkovice",49.166323,16.757805,"610",0,U16104N557,2
U16121Z2,"Ponětovice, železniční stanice",49.154698,16.747757,"610",0,U16121N536,2
U16120Z2,"Ponětovice",49.152307,16.742117,"610",0,U16120N558,2
U16159Z4,"Šlapanice, Kalvodova",49.166805,16.72634,"610",0,U16159N559,2
U16163Z2,"Šlapanice, Riegrova",49.168445,16.726032,"610",0,U16163N560,2
U16129Z2,"Šlapanice, Bedřichovice",49.179845,16.721551,"610",0,U16129N561,2
U16130Z4,"Šlapanice, Bedřichovice, rozc.",49.183358,16.722438,"610",0,U16130N212,2
U16116Z2,"Podolí",49.189822,16.726255,"610",0,U16116N562,2
U16118Z2,"Podolí, Líšeňská",49.191807,16.71978,"610",0,U16118N563,2
U1497Z2,"Podolská",49.203103,16.714031,"101",0,U1497N564,2
U1726Z2,"Velatická",49.204474,16.707573,"101",0,U1726N565,1
U1350Z2,"Macháčkova",49.206174,16.701931,"101",0,U1350N566,1
U1421Z4,"Náměstí Karla IV.",49.206991,16.695508,"101",0,U1421N567,1
U1384Z3,"Mifkova",49.20716,16.692152,"101",0,U1384N568,1
U1208Z5,"Jírova",49.208796,16.688371,"101",0,U1208N569,1
U1208Z3,"Jírova",49.208959,16.68804,"101",0,U1208N569,1
U1421Z3,"Náměstí Karla IV.",49.206713,16.694241,"101",0,U1421N567,1
U1350Z1,"Macháčkova",49.206052,16.70193,"101",0,U1350N566,1
U1726Z1,"Velatická",49.204523,16.707351,"101",0,U1726N565,1
U1497Z1,"Podolská",49.203054,16.714231,"101",0,U1497N564,2
U16118Z1,"Podolí, Líšeňská",49.191843,16.719825,"610",0,U16118N563,2
U16116Z1,"Podolí",49.189832,16.725978,"610",0,U16116N562,2
U16130Z3,"Šlapanice, Bedřichovice, rozc.",49.18347,16.722373,"610",0,U16130N212,2
U16129Z1,"Šlapanice, Bedřichovice",49.17982,16.721481,"610",0,U16129N561,2
U16163Z3,"Šlapanice, Riegrova",49.168445,16.726032,"610",0,U16163N560,2
U16159Z3,"Šlapanice, Kalvodova",49.165936,16.726067,"610",0,U16159N559,2
U16137Z1,"Šlapanice, železniční stanice",49.15865,16.729037,"610",0,U16137N535,2
U16111Z1,"Kobylnice",49.140325,16.731953,"610",0,U16111N570,2
U16115Z1,"Kobylnice, obecní úřad",49.137533,16.732766,"610",0,U16115N571,2
U16172Z1,"Kobylnice, hřbitov",49.132298,16.732949,"610",0,U16172N572,2
U16127Z1,"Sokolnice, zámek",49.117865,16.725248,"610",0,U16127N573,2
U16145Z1,"Sokolnice, obecní úřad",49.11425,16.720963,"610",0,U16145N574,2
U16149Z2,"Sokolnice, železniční stanice",49.108258,16.734145,"610",0,U16149N402,2
U16157Z1,"Újezd u Brna, Revoluční",49.106258,16.749987,"610",0,U16157N575,2
U16156Z1,"Újezd u Brna, městský úřad",49.104578,16.757317,"610",0,U16156N576,2
U16150Z2,"Žatčany, náves",49.088563,16.732707,"610",0,U16150N577,2
U16152Z2,"Žatčany, u mlýna",49.086637,16.725932,"610",0,U16152N578,2
U15171Z1,"Měnín, u pomníku",49.085837,16.699068,"510",0,U15171N579,2
U15128Z1,"Měnín, u mlýna",49.084102,16.694181,"510",0,U15128N580,2
U15165Z1,"Měnín, obchodní středisko",49.079732,16.693543,"510",0,U15165N581,2
U15125Z1,"Měnín, Albrechtov",49.068535,16.682603,"510",0,U15125N582,2
U15216Z1,"Blučina, rozcestí",49.05262,16.661815,"525",0,U15216N583,2
U15214Z3,"Blučina, náměstí",49.054957,16.646473,"525",0,U15214N584,2
U15213Z1,"Blučina, Komenského",49.055353,16.635147,"525",0,U15213N585,2
U15217Z1,"Blučina, ZD",49.053207,16.626305,"525",0,U15217N586,2
U15229Z2,"Židlochovice, aut. st.",49.035814,16.615257,"525",0,U15229N97,2
U15217Z2,"Blučina, ZD",49.053727,16.627398,"525",0,U15217N586,2
U15213Z2,"Blučina, Komenského",49.055315,16.635013,"525",0,U15213N585,2
U15214Z2,"Blučina, náměstí",49.054872,16.646478,"525",0,U15214N584,2
U15216Z2,"Blučina, rozcestí",49.052582,16.661898,"525",0,U15216N583,2
U15125Z2,"Měnín, Albrechtov",49.068523,16.682727,"510",0,U15125N582,2
U15165Z2,"Měnín, obchodní středisko",49.079732,16.693543,"510",0,U15165N581,2
U15171Z2,"Měnín, u pomníku",49.085542,16.698556,"510",0,U15171N579,2
U16152Z1,"Žatčany, u mlýna",49.086572,16.726,"610",0,U16152N578,2
U16151Z1,"Žatčany, škola",49.089367,16.731432,"610",0,U16151N587,2
U16151Z2,"Žatčany, škola",49.089367,16.731432,"610",0,U16151N587,2
U16138Z2,"Telnice",49.101515,16.719568,"610",0,U16138N163,2
U16149Z52,"Sokolnice, železniční stanice",49.108258,16.734145,"610",0,U16149N402,2
U16158Z1,"Újezd u Brna, škola",49.103793,16.754275,"610",0,U16158N588,2
U16141Z1,"Prace, škola",49.138783,16.762768,"610",0,U16141N589,2
U16139Z1,"Prace, náves",49.139432,16.765133,"610",0,U16139N590,2
U16143Z1,"Prace, točna",49.141017,16.764052,"610",0,U16143N591,2
U16143Z2,"Prace, točna",49.1411,16.764035,"610",0,U16143N591,2
U16139Z2,"Prace, náves",49.1395,16.765083,"610",0,U16139N590,2
U16141Z2,"Prace, škola",49.138867,16.762701,"610",0,U16141N589,2
U16115Z2,"Kobylnice, obecní úřad",49.137579,16.732781,"610",0,U16115N571,2
U16111Z2,"Kobylnice",49.140187,16.731883,"610",0,U16111N570,2
U16112Z2,"Kobylnice, Na Rybníku",49.142864,16.726626,"610",0,U16112N592,2
U1098Z4,"Dvorska, smyčka",49.14346,16.707316,"101",0,U1098N593,2
U1742Z2,"Vlčkova",49.141158,16.70137,"101",0,U1742N594,2
U1513Z2,"Pratecká",49.146305,16.681206,"101",0,U1513N595,1
U1738Z2,"Vítězná",49.146868,16.674156,"101",0,U1738N596,2
U1131Z4,"Hanácká",49.147804,16.66765,"101",0,U1131N166,2
U1538Z2,"Revoluční",49.150097,16.661811,"101",0,U1538N597,1
U1154Z1,"Holásecká",49.147496,16.661062,"101",0,U1154N598,2
U1543Z2,"Rolencova",49.145353,16.655599,"101",0,U1543N599,2
U1151Z4,"Holásky",49.143524,16.650636,"101",0,U1151N600,2
U1717Z2,"V aleji",49.148,16.648573,"101",0,U1717N601,1
U1518Z2,"Prodloužená",49.152176,16.647669,"101",0,U1518N602,2
U1511Z2,"Popelova",49.156778,16.646434,"101",0,U1511N603,1
U1148Z2,"Hněvkovského",49.168799,16.626932,"101",0,U1148N604,1
U1565Z2,"Sazenice",49.172877,16.623824,"101",0,U1565N605,1
U1807Z52,"Železniční",49.182069,16.620233,"100",0,U1807N606,2
U1798Z62,"Zvonařka",49.186037,16.617877,"100",0,U1798N122,2
U1809Z4,"Židenice, nádraží",49.203399,16.636702,"100",0,U1809N421,1
U1611Z7,"Stará osada",49.202432,16.642134,"100",0,U1611N607,2
U1743Z1,"Vlčnovská",49.210995,16.660327,"101",0,U1743N608,1
U1523Z1,"Prušánecká",49.20827,16.663465,"101",0,U1523N609,1
U1383Z1,"Mikulovská",49.2055,16.665833,"101",0,U1383N610,1
U1623Z1,"Strnadova",49.205754,16.66904,"101",0,U1623N611,1
U1103Z1,"Elplova",49.210484,16.675106,"101",0,U1103N612,2
U1157Z1,"Horníkova",49.212138,16.676622,"101",0,U1157N613,2
U1489Z1,"Podbělová",49.213881,16.681661,"101",0,U1489N614,2
U1392Z1,"Molákova",49.212873,16.686835,"101",0,U1392N615,2
U1208Z6,"Jírova",49.209766,16.688124,"101",0,U1208N569,1
U1208Z8,"Jírova",49.209217,16.688545,"101",0,U1208N569,1
U1392Z2,"Molákova",49.212602,16.687063,"101",0,U1392N615,2
U1489Z2,"Podbělová",49.214049,16.681384,"101",0,U1489N614,2
U1157Z2,"Horníkova",49.211809,16.67649,"101",0,U1157N613,2
U1103Z2,"Elplova",49.210409,16.674871,"101",0,U1103N612,2
U1623Z2,"Strnadova",49.205821,16.668465,"101",0,U1623N611,2
U1383Z2,"Mikulovská",49.206311,16.664823,"101",0,U1383N610,1
U1523Z2,"Prušánecká",49.209503,16.663369,"101",0,U1523N609,1
U1743Z2,"Vlčnovská",49.211166,16.659638,"101",0,U1743N608,1
U1611Z9,"Stará osada",49.202037,16.641659,"100",0,U1611N607,2
U1313Z3,"Kuldova",49.202256,16.635894,"100",0,U1313N616,1
U1809Z2,"Židenice, nádraží",49.203334,16.636579,"100",0,U1809N421,1
U16150Z1,"Žatčany, náves",49.088592,16.732396,"610",0,U16150N577,2
U16156Z2,"Újezd u Brna, městský úřad",49.10469,16.757273,"610",0,U16156N576,2
U16157Z2,"Újezd u Brna, Revoluční",49.106715,16.748685,"610",0,U16157N575,2
U16149Z53,"Sokolnice, železniční stanice",49.108437,16.733573,"610",0,U16149N402,2
U16145Z2,"Sokolnice, obecní úřad",49.114233,16.721202,"610",0,U16145N574,2
U16127Z2,"Sokolnice, zámek",49.11788,16.724835,"610",0,U16127N573,2
U16172Z2,"Kobylnice, hřbitov",49.132361,16.733035,"610",0,U16172N572,2
U16137Z2,"Šlapanice, železniční stanice",49.159177,16.728893,"610",0,U16137N535,2
U16163Z1,"Šlapanice, Riegrova",49.168445,16.726032,"610",0,U16163N560,2
U16120Z1,"Ponětovice",49.152352,16.740815,"610",0,U16120N558,2
U16121Z1,"Ponětovice, železniční stanice",49.154645,16.747738,"610",0,U16121N536,2
U16104Z1,"Jiříkovice",49.16632,16.757892,"610",0,U16104N557,2
U16102Z1,"Blažovice, pod kostelem",49.162833,16.78274,"610",0,U16102N556,2
U16101Z1,"Blažovice, hostinec",49.166001,16.786446,"610",0,U16101N555,2
U1362Z1,"Mariánské údolí",49.203331,16.716449,"101",0,U1362N617,2
U1362Z4,"Mariánské údolí",49.20332,16.71587,"101",0,U1362N617,2
U1807Z1,"Železniční",49.182457,16.619792,"100",0,U1807N606,1
U1266Z53,"Konopná",49.179619,16.621449,"100",0,U1266N618,2
U1148Z1,"Hněvkovského",49.168951,16.626664,"101",0,U1148N604,1
U1511Z1,"Popelova",49.156542,16.646787,"101",0,U1511N603,1
U1518Z1,"Prodloužená",49.151349,16.647722,"101",0,U1518N602,2
U1717Z1,"V aleji",49.147687,16.648637,"101",0,U1717N601,1
U1151Z1,"Holásky",49.143624,16.650395,"101",0,U1151N600,2
U1543Z1,"Rolencova",49.145069,16.655039,"101",0,U1543N599,2
U1154Z2,"Holásecká",49.147689,16.661673,"101",0,U1154N598,1
U1131Z3,"Hanácká",49.147863,16.666583,"101",0,U1131N166,2
U1738Z1,"Vítězná",49.146909,16.673259,"101",0,U1738N596,2
U1513Z1,"Pratecká",49.146239,16.681655,"101",0,U1513N595,2
U1742Z1,"Vlčkova",49.14097,16.7012,"101",0,U1742N594,2
U1098Z3,"Dvorska, smyčka",49.143441,16.707436,"101",0,U1098N593,2
U16112Z1,"Kobylnice, Na Rybníku",49.142746,16.726363,"610",0,U16112N592,2
U1071Z2,"Červený písek",49.220474,16.657375,"100",0,U1071N619,2
U1503Z3,"Podzimní",49.22165,16.652917,"100",0,U1503N620,2
U1197Z3,"Jarní ČD",49.22026,16.652902,"100",0,U1197N621,2
U1808Z2,"Železniční stavitelství",49.216798,16.654101,"100",0,U1808N622,1
U1083Z2,"Depo ČD",49.214319,16.652131,"100",0,U1083N623,2
U1316Z2,"Kulkova",49.211681,16.648344,"100",0,U1316N624,2
U1498Z2,"Podsednická",49.209111,16.645671,"100",0,U1498N625,2
U1698Z3,"Údolíček",49.207609,16.645181,"100",0,U1698N626,2
U1113Z1,"Gajdošova",49.19868,16.645552,"100",0,U1113N627,2
U1473Z3,"Otakara Ševčíka",49.194578,16.646459,"100",0,U1473N628,2
U1641Z2,"Škroupova",49.191985,16.647843,"100",0,U1641N629,1
U1127Z1,"Hájecká",49.174587,16.64245,"101",0,U1127N630,2
U1737Z1,"Vinohradská",49.172509,16.645753,"101",0,U1737N631,1
U1612Z1,"Staré Černovice",49.169841,16.64782,"101",0,U1612N632,2
U1612Z2,"Staré Černovice",49.170073,16.647998,"101",0,U1612N632,2
U1737Z2,"Vinohradská",49.172984,16.645305,"101",0,U1737N631,1
U1127Z2,"Hájecká",49.174868,16.641618,"101",0,U1127N630,2
U1677Z1,"Tržní",49.189973,16.632193,"100",0,U1677N121,1
U1641Z1,"Škroupova",49.192022,16.648112,"100",0,U1641N629,1
U1473Z4,"Otakara Ševčíka",49.194988,16.646643,"100",0,U1473N628,2
U1113Z2,"Gajdošova",49.198286,16.645995,"100",0,U1113N627,2
U1611Z8,"Stará osada",49.202294,16.642001,"100",0,U1611N607,2
U1698Z1,"Údolíček",49.206572,16.64416,"100",0,U1698N626,2
U1498Z1,"Podsednická",49.209032,16.645736,"100",0,U1498N625,2
U1316Z1,"Kulkova",49.211717,16.64853,"100",0,U1316N624,2
U1083Z1,"Depo ČD",49.215406,16.653524,"100",0,U1083N623,2
U1808Z1,"Železniční stavitelství",49.217133,16.654292,"100",0,U1808N622,2
U1197Z4,"Jarní ČD",49.220905,16.652747,"100",0,U1197N621,2
U1503Z2,"Podzimní",49.221574,16.653112,"100",0,U1503N620,2
U1071Z1,"Červený písek",49.220474,16.657375,"100",0,U1071N619,2
U15301Z2,"Přísnotice",49.003395,16.613415,"535",0,U15301N633,2
U15305Z2,"Žabčice, u Mahovských",49.004753,16.609845,"535",0,U15305N634,2
U15304Z2,"Žabčice, sokolovna",49.012877,16.60025,"535",0,U15304N635,2
U15306Z2,"Žabčice, žel. st.",49.011645,16.595305,"535",0,U15306N467,2
U15303Z2,"Žabčice",49.013502,16.601017,"535",0,U15303N636,2
U15302Z2,"Unkovice, rozc.",49.01553,16.604708,"535",0,U15302N637,2
U15228Z2,"Židlochovice, ADOSA",49.028795,16.617087,"525",0,U15228N638,2
U15229Z5,"Židlochovice, aut. st.",49.035814,16.615257,"525",0,U15229N97,2
U15228Z1,"Židlochovice, ADOSA",49.028803,16.61698,"525",0,U15228N638,2
U15302Z1,"Unkovice, rozc.",49.015645,16.604942,"535",0,U15302N637,2
U15304Z1,"Žabčice, sokolovna",49.012877,16.60025,"535",0,U15304N635,2
U15306Z1,"Žabčice, žel. st.",49.011645,16.595305,"535",0,U15306N467,2
U15215Z2,"Blučina, obchodní středisko",49.056137,16.645115,"525",0,U15215N639,2
U15131Z2,"Opatovice",49.076393,16.64193,"510",0,U15131N640,2
U15143Z2,"Rajhradice, obecní úřad",49.091715,16.633972,"510",0,U15143N641,2
U15144Z2,"Rajhradice, váha",49.09362,16.635452,"510",0,U15144N642,2
U15136Z2,"Rajhradice, Loučka",49.09259,16.6217,"510",0,U15136N643,2
U15179Z2,"Rajhrad, klášter",49.090645,16.614513,"510",0,U15179N644,2
U15149Z1,"Rajhrad, Městečko",49.08927,16.605748,"510",0,U15149N645,2
U15181Z9,"Rajhrad, železniční stanice",49.084167,16.605135,"510",0,U15181N92,2
U15181Z3,"Rajhrad, železniční stanice",49.084335,16.60514,"510",0,U15181N92,2
U15149Z2,"Rajhrad, Městečko",49.089079,16.606333,"510",0,U15149N645,2
U15179Z1,"Rajhrad, klášter",49.091127,16.615325,"510",0,U15179N644,2
U15136Z1,"Rajhradice, Loučka",49.092543,16.621718,"510",0,U15136N643,2
U15144Z1,"Rajhradice, váha",49.093623,16.63553,"510",0,U15144N642,2
U15143Z1,"Rajhradice, obecní úřad",49.091617,16.633897,"510",0,U15143N641,2
U15131Z1,"Opatovice",49.076362,16.64175,"510",0,U15131N640,2
U15215Z1,"Blučina, obchodní středisko",49.056137,16.645115,"525",0,U15215N639,2
U15214Z1,"Blučina, náměstí",49.054872,16.646478,"525",0,U15214N584,2
U12327Z2,"Olomučany, točna",49.322893,16.67993,"232",0,U12327N646,2
U12324Z2,"Olomučany, horní konec",49.325513,16.677135,"232",0,U12324N647,2
U12325Z2,"Olomučany, restaurace",49.329975,16.672322,"232",0,U12325N648,2
U12326Z2,"Olomučany, škola",49.33313,16.66991,"232",0,U12326N649,2
U12323Z2,"Olomučany, dolní konec",49.337113,16.666925,"232",0,U12323N650,2
U12389Z2,"Blansko, rozcestí Klepačov",49.346355,16.650873,"235",0,U12389N651,2
U12342Z31,"Blansko, aut. st.",49.353401,16.64738,"235",0,U12342N416,2
U12342Z16,"Blansko, aut. st.",49.354033,16.646223,"235",0,U12342N416,2
U12339Z1,"Blansko, Svitavská",49.359623,16.642805,"235",0,U12339N652,2
U12386Z1,"Blansko, Poříčí",49.362451,16.641309,"235",0,U12386N653,2
U12373Z1,"Blansko, Bezručova",49.370599,16.645997,"235",0,U12373N654,2
U12358Z2,"Blansko, Horní Lhota",49.384052,16.647172,"235",0,U12358N655,2
U12441Z2,"Ráječko",49.395253,16.642972,"245",0,U12441N656,2
U12438Z2,"Rájec-Jestřebí, pošta",49.406298,16.637625,"245",0,U12438N657,2
U12437Z2,"Rájec-Jestřebí, náměstí",49.411077,16.639236,"245",0,U12437N658,2
U12434Z2,"Rájec-Jestřebí, Komenského",49.415923,16.632258,"245",0,U12434N659,2
